{
"type": "FeatureCollection",
"name": "poi",
"crs": { "type": "name", "properties": { "name": "urn:ogc:def:crs:OGC:1.3:CRS84" } },
"features": [
{ "type": "Feature", "properties": { "fid": 1, "title_source": "“148CAFE”でちょっぴり優雅なランチ", "link_source": "https://nagalulu.com/148cafe-lunch/", "blog_source": "ながるる", "name_poi": "148CAFE", "flag_poi": "カフェ", "url_link": "https://barn148.jp/place/cafe/", "url_flag": "1" }, "geometry": { "type": "Point", "coordinates": [ 139.9264461, 35.8772106 ] } },
{ "type": "Feature", "properties": { "fid": 2, "title_source": "【松戸】21世紀の森と広場に行ってきた！新遊具情報UP｜まちっと柏", "link_source": "https://machitto.jp/kashiwa/43873/", "blog_source": "まちっと柏", "name_poi": "21世紀の森と広場", "flag_poi": "公園", "url_link": "https://www.city.matsudo.chiba.jp/shisetsu-guide/kouen_ryokuka/top/", "url_flag": "1" }, "geometry": { "type": "Point", "coordinates": [ 139.9381943, 35.803077 ] } },
{ "type": "Feature", "properties": { "fid": 3, "title_source": "21世紀の森と広場の”あそびのすみか”に子どもも大興奮でした", "link_source": "https://nagalulu.com/asobinosumika/", "blog_source": "ながるる", "name_poi": "21世紀の森と広場", "flag_poi": "公園", "url_link": "https://www.city.matsudo.chiba.jp/shisetsu-guide/kouen_ryokuka/top/", "url_flag": "1" }, "geometry": { "type": "Point", "coordinates": [ 139.9381943, 35.803077 ] } },
{ "type": "Feature", "properties": { "fid": 4, "title_source": "『AKEBI （アケビ）柏』こだわりの絶品！無化調醬油ラーメン", "link_source": "https://yuropom.com/kashiwa-akebi/", "blog_source": "ゆろぽんのおいしいごはん。", "name_poi": "AKEBI ", "flag_poi": "ラーメン　らーめん", "url_link": "https://www.instagram.com/akebimen/", "url_flag": "2" }, "geometry": { "type": "Point", "coordinates": [ 139.9742503, 35.8606326 ] } },
{ "type": "Feature", "properties": { "fid": 5, "title_source": "AKOMEYAで作る九谷焼ワークショップが推せる。", "link_source": "https://nagareyama-sumizumi.com/post-11936", "blog_source": "流山すみずみ", "name_poi": "AKOMEYA", "flag_poi": "雑貨", "url_link": "https://www.akomeya.jp/store_info/store/snagareyama/", "url_flag": "1" }, "geometry": { "type": "Point", "coordinates": [ 139.9262168, 35.8713642 ] } },
{ "type": "Feature", "properties": { "fid": 6, "title_source": "本格！イタリアンバル【Ancer 流山おおたかの森(アンサー) 】サクラテラス1階 | もりのは（モリノハ）", "link_source": "https://morino8.jp/gourmet/ancer/", "blog_source": "モリノハ", "name_poi": "Ancer", "flag_poi": "イタリアン", "url_link": "-", "url_flag": "0" }, "geometry": { "type": "Point", "coordinates": [ 139.924361, 35.871621 ] } },
{ "type": "Feature", "properties": { "fid": 7, "title_source": "コーヒー専門店【AnoAnoCoffee Drink & Bean】柏駅ソリトマーゴが移転オープン！つくばエクスプレス高架下(流山おおたかの森) | もりのは（モリノハ）", "link_source": "https://morino8.jp/gourmet/ano_ano_coffee/", "blog_source": "モリノハ", "name_poi": "Ano Ano Coffee", "flag_poi": "コーヒー", "url_link": "https://www.instagram.com/anoanocoffee/", "url_flag": "2" }, "geometry": { "type": "Point", "coordinates": [ 139.923648, 35.870517 ] } },
{ "type": "Feature", "properties": { "fid": 8, "title_source": "流山おおたかの森駅高架下のコーヒー専門店「Ano Ano Coffee Drink & Bean」の自動販売機が稼働開始してた : 柏の葉サイクルライフ", "link_source": "https://kashiwanoha-cycle-life.blog.jp/archives/51852167.html", "blog_source": "柏の葉サイクルライフ", "name_poi": "Ano Ano Coffee", "flag_poi": "コーヒー", "url_link": "https://www.instagram.com/anoanocoffee/", "url_flag": "2" }, "geometry": { "type": "Point", "coordinates": [ 139.923648, 35.870517 ] } },
{ "type": "Feature", "properties": { "fid": 9, "title_source": "クラフトビール専門店【BEER BRAIN BREWERY Taproom ビア ブレイン ブルワリー タップルーム】コイルガーデン柏の葉キャンパス（旧ファーストキャビン） | もりのは（モリノハ）", "link_source": "https://morino8.jp/gourmet/beerbrain_brewery/", "blog_source": "モリノハ", "name_poi": "BEER BRAIN BREWERY Taproom", "flag_poi": "ビール　酒", "url_link": "https://www.instagram.com/beerbrain_brewery_taproom/", "url_flag": "2" }, "geometry": { "type": "Point", "coordinates": [ 139.9540083, 35.8966512 ] } },
{ "type": "Feature", "properties": { "fid": 10, "title_source": "【Black bird ブラックバード】は流山おおたかの森の隠れ家的カフェ！メニューや営業時間は？ | もりのは（モリノハ）", "link_source": "https://morino8.jp/gourmet/cafe-blackbird/", "blog_source": "モリノハ", "name_poi": "Blackbird", "flag_poi": "カフェ", "url_link": "https://cafe-blackbird.jimdofree.com/", "url_flag": "1" }, "geometry": { "type": "Point", "coordinates": [ 139.922228, 35.870103 ] } },
{ "type": "Feature", "properties": { "fid": 11, "title_source": "【流山】昨年11月オープンの「Cafe Artisan＋（カフェ アーチザンプラス）」で酵素玄米のランチ（営業は日・月） | リビングかしわWeb", "link_source": "https://mrs.living.jp/kashiwa/town_gourmet/reporter/5079867", "blog_source": "リビングかしわ", "name_poi": "Cafe Artisan＋", "flag_poi": "カフェ", "url_link": "https://www.instagram.com/cafe_artisan.p/", "url_flag": "2" }, "geometry": { "type": "Point", "coordinates": [ 139.9210522, 35.87908 ] } },
{ "type": "Feature", "properties": { "fid": 12, "title_source": "清水公園内おしゃれなお店【Cafe AZALEA カフェアゼリア】映え抜群ランチメニュー・かわいいスイーツも♪（千葉県野田市） | もりのは（モリノハ）", "link_source": "https://morino8.jp/gourmet/azalea/", "blog_source": "モリノハ", "name_poi": "Cafe AZALEA", "flag_poi": "カフェ", "url_link": "https://www.shimizu-kouen-eatery.com/azalea/", "url_flag": "1" }, "geometry": { "type": "Point", "coordinates": [ 139.85361, 35.958194 ] } },
{ "type": "Feature", "properties": { "fid": 13, "title_source": "【野田】清水公園内の「cafe AZALEA」で「fuacha」なティータイムを♪｜まちっと柏", "link_source": "https://machitto.jp/kashiwa/42466/", "blog_source": "まちっと柏", "name_poi": "Cafe AZALEA", "flag_poi": "カフェ", "url_link": "https://www.shimizu-kouen-eatery.com/azalea/", "url_flag": "1" }, "geometry": { "type": "Point", "coordinates": [ 139.85361, 35.958194 ] } },
{ "type": "Feature", "properties": { "fid": 14, "title_source": "千葉 野田の清水公園の中にある【Cafe AZALEA】 | chikudays", "link_source": "https://chikudays.com/omise/chiba_azalea/", "blog_source": "Chiku Days", "name_poi": "Cafe AZALEA", "flag_poi": "カフェ", "url_link": "https://www.shimizu-kouen-eatery.com/azalea/", "url_flag": "1" }, "geometry": { "type": "Point", "coordinates": [ 139.85361, 35.958194 ] } },
{ "type": "Feature", "properties": { "fid": 15, "title_source": "【松戸】こだわりの隠れ家カフェ「Café moca」＆あんず通り｜まちっと柏", "link_source": "https://machitto.jp/kashiwa/59990/", "blog_source": "まちっと柏", "name_poi": "Cafe Moca", "flag_poi": "カフェ", "url_link": "-", "url_flag": "0" }, "geometry": { "type": "Point", "coordinates": [ 139.9224116, 35.8441504 ] } },
{ "type": "Feature", "properties": { "fid": 16, "title_source": "ランチの人気店は夜も間違いなし◎cafe わかば堂 柏の葉 | リビングかしわWeb", "link_source": "https://mrs.living.jp/kashiwa/town_gourmet/reporter/4784109", "blog_source": "リビングかしわ", "name_poi": "cafeわかば堂", "flag_poi": "カフェ", "url_link": "https://www.instagram.com/wakabadokashiwanoha/", "url_flag": "2" }, "geometry": { "type": "Point", "coordinates": [ 139.953459, 35.8961085 ] } },
{ "type": "Feature", "properties": { "fid": 17, "title_source": "『cafeわかば堂 柏の葉』北千住の人気店が柏にオープン", "link_source": "https://yuropom.com/cafe-wakabado-kashiwanoha/", "blog_source": "ゆろぽんのおいしいごはん。", "name_poi": "cafeわかば堂", "flag_poi": "カフェ", "url_link": "https://www.instagram.com/wakabadokashiwanoha/", "url_flag": "2" }, "geometry": { "type": "Point", "coordinates": [ 139.953459, 35.8961085 ] } },
{ "type": "Feature", "properties": { "fid": 18, "title_source": "【cafeわかば堂 柏の葉】で素敵なアンティークに囲まれたお洒落ランチ", "link_source": "https://nagalulu.com/wakabadou/", "blog_source": "ながるる", "name_poi": "cafeわかば堂", "flag_poi": "カフェ", "url_link": "https://www.instagram.com/wakabadokashiwanoha/", "url_flag": "2" }, "geometry": { "type": "Point", "coordinates": [ 139.953459, 35.8961085 ] } },
{ "type": "Feature", "properties": { "fid": 19, "title_source": "【わかば堂 柏の葉】北千住の隠れ家的おしゃれカフェ♪「コイルリンクガレージ柏の葉キャンパス146街区」（2022年2月3日オープン） | もりのは（モリノハ）", "link_source": "https://morino8.jp/gourmet/wakabadou/", "blog_source": "モリノハ", "name_poi": "cafeわかば堂", "flag_poi": "カフェ", "url_link": "https://www.instagram.com/wakabadokashiwanoha/", "url_flag": "2" }, "geometry": { "type": "Point", "coordinates": [ 139.953459, 35.8961085 ] } },
{ "type": "Feature", "properties": { "fid": 20, "title_source": "茨城 守谷の商業施設 ブランチにあるコーヒーとクラフトチョコレートのお店【COFFEE&CACAO FACTORY】 | chikudays", "link_source": "https://chikudays.com/omise/moriya_coffeecacaofactory/", "blog_source": "Chiku Days", "name_poi": "COFFEE&CACAO FACTORY", "flag_poi": "カフェ　コーヒー", "url_link": "https://www.instagram.com/coffee_and_cacao_factory/", "url_flag": "2" }, "geometry": { "type": "Point", "coordinates": [ 139.9942394, 35.9531236 ] } },
{ "type": "Feature", "properties": { "fid": 21, "title_source": "コーヒーファクトリーの新店舗★コーヒー＆カカオファクトリー", "link_source": "https://www.thinving.net/topics-news/30400/", "blog_source": "シンヴィング", "name_poi": "COFFEE&CACAO FACTORY", "flag_poi": "カフェ　コーヒー", "url_link": "https://www.instagram.com/coffee_and_cacao_factory/", "url_flag": "2" }, "geometry": { "type": "Point", "coordinates": [ 139.9942394, 35.9531236 ] } },
{ "type": "Feature", "properties": { "fid": 22, "title_source": "ドライブスルー併設【Crisp クリスプ 房の駅】千葉県産の野菜たっぷり！サラダ専門店（コイル16イチロクゲートに新規オープン） | もりのは（モリノハ）", "link_source": "https://morino8.jp/gourmet/crisp/", "blog_source": "モリノハ", "name_poi": "Crisp 房の駅", "flag_poi": "サラダ", "url_link": "https://fusanoeki.fusa.co.jp/salad/", "url_flag": "1" }, "geometry": { "type": "Point", "coordinates": [ 139.95132, 35.901785 ] } },
{ "type": "Feature", "properties": { "fid": 23, "title_source": "【柏市】「Crispクリスプ 房の駅」のサラダがメインディッシュになる理由とは？ - mook | Yahoo! JAPAN クリエイターズプログラム", "link_source": "https://creators.yahoo.co.jp/mook/0100204141", "blog_source": "Mook(Yahoo Creators)", "name_poi": "Crisp 房の駅", "flag_poi": "サラダ", "url_link": "https://fusanoeki.fusa.co.jp/salad/", "url_flag": "1" }, "geometry": { "type": "Point", "coordinates": [ 139.95132, 35.901785 ] } },
{ "type": "Feature", "properties": { "fid": 24, "title_source": "柏の葉キャンパス駅徒歩15分 Crisp 房の駅を初訪問！チキンシーザーサラダをいただき、新鮮野菜とチキンを楽しむ", "link_source": "https://tokatsulunch.com/20505/", "blog_source": "東葛ランチ天国", "name_poi": "Crisp 房の駅", "flag_poi": "サラダ", "url_link": "https://fusanoeki.fusa.co.jp/salad/", "url_flag": "1" }, "geometry": { "type": "Point", "coordinates": [ 139.95132, 35.901785 ] } },
{ "type": "Feature", "properties": { "fid": 25, "title_source": "【キノクニヤ(紀伊國屋)】ちょっぴり贅沢なおうち時間に♪（Daily Table KINOKUNIYA 流⼭おおたかの森SC FLAPS店） | もりのは（モリノハ）", "link_source": "https://morino8.jp/lifegoods/kinokuniya/", "blog_source": "モリノハ", "name_poi": "Daily table KINOKUNIYA", "flag_poi": "食品　スーパー", "url_link": "https://www.e-kinokuniya.com/store/dailyTable/nagareyama-otakanomori-sc-flaps/", "url_flag": "1" }, "geometry": { "type": "Point", "coordinates": [ 139.924612, 35.870968 ] } },
{ "type": "Feature", "properties": { "fid": 26, "title_source": "柏駅【エッグスンシングスコーヒー】大人気ハワイアンカフェ♪Eggs ’n Things Coffee(柏市 髙島屋ステーションモール店) | もりのは（モリノハ）", "link_source": "https://morino8.jp/gourmet/eggsnthings/", "blog_source": "モリノハ", "name_poi": "Eggs ’n Things Coffee", "flag_poi": "カフェ　ハワイアン", "url_link": "https://www.eggsnthingsjapan.com/kashiwa/", "url_flag": "1" }, "geometry": { "type": "Point", "coordinates": [ 139.969461, 35.862242 ] } },
{ "type": "Feature", "properties": { "fid": 27, "title_source": "パン屋も併設【エスプレッソディーワークス Espresso D Worksカフェ】＆【ドラセブン DRA7バル】（流山おおたかの森アゼリアテラス） | もりのは（モリノハ）", "link_source": "https://morino8.jp/gourmet/espresso-d-works/", "blog_source": "モリノハ", "name_poi": "Espresso D Worksカフェ", "flag_poi": "カフェ　コーヒー", "url_link": "https://www.instagram.com/edw__ootakanomori_/", "url_flag": "2" }, "geometry": { "type": "Point", "coordinates": [ 139.9238808, 35.8718761 ] } },
{ "type": "Feature", "properties": { "fid": 28, "title_source": "イタリアンカフェ【Flowers フラワーズ】メニューは鎌倉七里ヶ浜「familiar」を再現！？（流山おおたかの森 西口pipito5階） | もりのは（モリノハ）", "link_source": "https://morino8.jp/gourmet/flowersff/", "blog_source": "モリノハ", "name_poi": "FLOWERS", "flag_poi": "イタリアン　カフェ", "url_link": "https://flowers.funmo.co.jp/", "url_flag": "1" }, "geometry": { "type": "Point", "coordinates": [ 139.923654, 35.871595 ] } },
{ "type": "Feature", "properties": { "fid": 29, "title_source": "リーズナブルで可愛い雑貨に心ときめく♪【フライングタイガーコペンハーゲン】(流山おおたかの森S・Cフラップス1階) | もりのは（モリノハ）", "link_source": "https://morino8.jp/shop/flyingtiger/", "blog_source": "モリノハ", "name_poi": "Flying Tiger", "flag_poi": "雑貨屋", "url_link": "https://blog.jp.flyingtiger.com/brand/flying-tiger-copenhagen/shop/nagareyamaootakanomori", "url_flag": "1" }, "geometry": { "type": "Point", "coordinates": [ 139.92474, 35.870979 ] } },
{ "type": "Feature", "properties": { "fid": 30, "title_source": "流山おおたかの森【フードホールファーマーズテーブル】ランチビュッフェからクラフトビールまで♪(FOOD HALL～FARMERS TABLE FISH BAR COLORE～) | もりのは（モリノハ）", "link_source": "https://morino8.jp/gourmet/foodhall-otaka/", "blog_source": "モリノハ", "name_poi": "FOOD HALL", "flag_poi": "レストラン", "url_link": "https://www.instagram.com/otaka.foodhall/", "url_flag": "2" }, "geometry": { "type": "Point", "coordinates": [ 139.925457, 35.872967 ] } },
{ "type": "Feature", "properties": { "fid": 31, "title_source": "【メイン料理に+500円】「おおたかの森フードホール」にランチブッフェが復活！@流山｜居酒屋 | リビングかしわWeb", "link_source": "https://mrs.living.jp/kashiwa/town_gourmet/reporter/4808240", "blog_source": "リビングかしわ", "name_poi": "FOOD HALL", "flag_poi": "レストラン", "url_link": "https://www.instagram.com/otaka.foodhall/", "url_flag": "2" }, "geometry": { "type": "Point", "coordinates": [ 139.925457, 35.872967 ] } },
{ "type": "Feature", "properties": { "fid": 32, "title_source": "2023年1月11日【FOOD’S DEPARTMENT おおたかの森】流山おおたかの森SC FLAPS フラップスにフードコートがオープン！ | もりのは（モリノハ）", "link_source": "https://morino8.jp/gourmet/food-court-flaps/", "blog_source": "モリノハ", "name_poi": "FOOD’S DEPARTMENT", "flag_poi": "フードコート", "url_link": "-", "url_flag": "0" }, "geometry": { "type": "Point", "coordinates": [ 139.924785, 35.87096 ] } },
{ "type": "Feature", "properties": { "fid": 33, "title_source": "FLAPS4階のFOOD’S DEPARTMENTに行ってきた – ながるる", "link_source": "https://nagalulu.com/foods-department/", "blog_source": "ながるる", "name_poi": "FOOD’S DEPARTMENT", "flag_poi": "フードコート", "url_link": "-", "url_flag": "0" }, "geometry": { "type": "Point", "coordinates": [ 139.924785, 35.87096 ] } },
{ "type": "Feature", "properties": { "fid": 34, "title_source": "ボタニカルパーク【GREEN PATH グリーンパス】つくばエクスプレス高架下スペースに！流山おおたかの森SC ANNEX2と同時 2022年6月30日オープン | もりのは（モリノハ）", "link_source": "https://morino8.jp/shop/green_path/", "blog_source": "モリノハ", "name_poi": "Forest(GREEN PATH)", "flag_poi": "花屋", "url_link": "https://www.forest-shop.com/", "url_flag": "1" }, "geometry": { "type": "Point", "coordinates": [ 139.923648, 35.870517 ] } },
{ "type": "Feature", "properties": { "fid": 35, "title_source": "【流山】駅近にある自然たっぷりの場所＜Forest(GREEN PATH)＞｜まちっと柏", "link_source": "https://machitto.jp/kashiwa/48725/", "blog_source": "まちっと柏", "name_poi": "Forest(GREEN PATH)", "flag_poi": "花屋", "url_link": "https://www.forest-shop.com/", "url_flag": "1" }, "geometry": { "type": "Point", "coordinates": [ 139.923648, 35.870517 ] } },
{ "type": "Feature", "properties": { "fid": 36, "title_source": "『アイビー ダイナー（I.B Diner）柏の葉』肉厚ビーフ100％のハンバーガー", "link_source": "https://yuropom.com/kashiwanoha-i-b-diner/", "blog_source": "ゆろぽんのおいしいごはん。", "name_poi": "I.B Diner", "flag_poi": "ハンバーガー", "url_link": "https://ibdiner-kashiwanoha.owst.jp/", "url_flag": "1" }, "geometry": { "type": "Point", "coordinates": [ 139.9525883, 35.8916168 ] } },
{ "type": "Feature", "properties": { "fid": 37, "title_source": "ハンバーガーが名物のアメリカンダイニングが柏の葉に新登場！「アイビーダイナー」", "link_source": "https://mrs.living.jp/kashiwa/town_gourmet/reporter/3544141", "blog_source": "リビングかしわ", "name_poi": "I.B Diner", "flag_poi": "ハンバーガー", "url_link": "https://ibdiner-kashiwanoha.owst.jp/", "url_flag": "1" }, "geometry": { "type": "Point", "coordinates": [ 139.9525883, 35.8916168 ] } },
{ "type": "Feature", "properties": { "fid": 38, "title_source": "【I.B TERRACE アイビーテラス おおたかの森店】ランチやハンバーガーのメニュー・料金は？（流山おおたかの森S･C FLAPSフラップス） | もりのは（モリノハ）", "link_source": "https://morino8.jp/gourmet/ib-terrace/", "blog_source": "モリノハ", "name_poi": "I.B TERRACE", "flag_poi": "ハンバーガー", "url_link": "https://www.instagram.com/ib_terrace_/", "url_flag": "2" }, "geometry": { "type": "Point", "coordinates": [ 139.924868, 35.8709749 ] } },
{ "type": "Feature", "properties": { "fid": 39, "title_source": "I.B TERRACEのバーガーは格別！大きくてもさらっとイケる", "link_source": "https://nagalulu.com/ib-terrace/", "blog_source": "ながるる", "name_poi": "I.B TERRACE", "flag_poi": "ハンバーガー", "url_link": "https://www.instagram.com/ib_terrace_/", "url_flag": "2" }, "geometry": { "type": "Point", "coordinates": [ 139.924868, 35.8709749 ] } },
{ "type": "Feature", "properties": { "fid": 40, "title_source": "柏たなか周辺で一番安いガソリンスタンドはここ！", "link_source": "https://kurowata.com/car-kashitana/", "blog_source": "柏たなかマニア", "name_poi": "JASSPORT柏田中", "flag_poi": "", "url_link": "-", "url_flag": "0" }, "geometry": { "type": "Point", "coordinates": [ 139.9594817, 35.9031545 ] } },
{ "type": "Feature", "properties": { "fid": 41, "title_source": "街の素敵なパン屋さん【kushino no panya クシノノパンヤ】流山おおたかの森北の行列ができるベーカリー。人気商品は予約を！ | もりのは（モリノハ）", "link_source": "https://morino8.jp/gourmet/kushinonopanya/", "blog_source": "モリノハ", "name_poi": "Kushino no Panya", "flag_poi": "パン", "url_link": "https://www.kushinonopanya.com/", "url_flag": "1" }, "geometry": { "type": "Point", "coordinates": [ 139.930248, 35.877543 ] } },
{ "type": "Feature", "properties": { "fid": 42, "title_source": "Kushino no Panyaは目立たないけど、おいしいパン屋さん – ながるる", "link_source": "https://nagalulu.com/kushino-no-panya/", "blog_source": "ながるる", "name_poi": "Kushino no Panya", "flag_poi": "パン", "url_link": "https://www.kushinonopanya.com/", "url_flag": "1" }, "geometry": { "type": "Point", "coordinates": [ 139.930248, 35.877543 ] } },
{ "type": "Feature", "properties": { "fid": 43, "title_source": "10月1日オープン！【カフェオッコ(ソライエスクエア内)】CAFÉ & LAUNDRY OKKO コインランドリーオッコも併設!? | もりのは（モリノハ）", "link_source": "https://morino8.jp/gourmet/cafe_okko/", "blog_source": "モリノハ", "name_poi": "LAUNDRY OKKO", "flag_poi": "カフェ　ランドリー", "url_link": "https://cafeokko.jp/", "url_flag": "1" }, "geometry": { "type": "Point", "coordinates": [ 139.925145, 35.875095 ] } },
{ "type": "Feature", "properties": { "fid": 44, "title_source": "新しいランドリースタイル「CAFE & LAUNDRY OKKO」。 - 40papa", "link_source": "https://40papa.com/gourmet/29203/", "blog_source": "40papa", "name_poi": "LAUNDRY OKKO", "flag_poi": "カフェ　ランドリー", "url_link": "https://cafeokko.jp/", "url_flag": "1" }, "geometry": { "type": "Point", "coordinates": [ 139.925145, 35.875095 ] } },
{ "type": "Feature", "properties": { "fid": 45, "title_source": "いろいろなスタイルで楽しめる「pâtisserie&café LIANTIQUE」", "link_source": "https://nagareyama-sanpo.net/2022/12/24-52/", "blog_source": "流山SANPO", "name_poi": "LIANTIQUE", "flag_poi": "カフェ　パン", "url_link": "https://liantique.thebase.in/about", "url_flag": "1" }, "geometry": { "type": "Point", "coordinates": [ 139.8961474, 35.8335638 ] } },
{ "type": "Feature", "properties": { "fid": 46, "title_source": "柏たなかの隠れ家レストラン「MIYAMA」で優雅な時間", "link_source": "https://nagareyama-sanpo.net/2019/06/25-17/", "blog_source": "流山SANPO", "name_poi": "MIYAMA", "flag_poi": "イタリアン　レストラン", "url_link": "-", "url_flag": "0" }, "geometry": { "type": "Point", "coordinates": [ 139.9516452, 35.9122968 ] } },
{ "type": "Feature", "properties": { "fid": 47, "title_source": "柏たなかの隠れ家イタリアン「トラットリア・ミヤマ」で頂く上質ランチ", "link_source": "https://mrs.living.jp/kashiwa/town_gourmet/reporter/4363299", "blog_source": "リビングかしわ", "name_poi": "MIYAMA", "flag_poi": "イタリアン　レストラン", "url_link": "-", "url_flag": "0" }, "geometry": { "type": "Point", "coordinates": [ 139.9516452, 35.9122968 ] } },
{ "type": "Feature", "properties": { "fid": 48, "title_source": "【柏】ほっこり一軒家カフェ「MUM cafe」｜カフェ④｜まちっと柏", "link_source": "https://machitto.jp/kashiwa/62531/", "blog_source": "まちっと柏", "name_poi": "MUM cafe", "flag_poi": "カフェ", "url_link": "https://www.instagram.com/kashiwa_mum/", "url_flag": "2" }, "geometry": { "type": "Point", "coordinates": [ 139.9736919, 35.8537259 ] } },
{ "type": "Feature", "properties": { "fid": 49, "title_source": "『Noodles & Cafe MEN-OH 柏の葉』ヘルシー健康、SDGsな新しいめん王", "link_source": "https://yuropom.com/noodles-cafe-men-oh/", "blog_source": "ゆろぽんのおいしいごはん。", "name_poi": "Noodles&Cafe MEN-OH", "flag_poi": "ラーメン　らーめん", "url_link": "https://cafe-menoh.com/", "url_flag": "1" }, "geometry": { "type": "Point", "coordinates": [ 139.9534429, 35.8962456 ] } },
{ "type": "Feature", "properties": { "fid": 50, "title_source": "【Noodles&Cafe MEN-OH】めん王はSDGsを実践する最先端のラーメン店", "link_source": "https://nagalulu.com/noodlescafe-menoh/", "blog_source": "ながるる", "name_poi": "Noodles&Cafe MEN-OH", "flag_poi": "ラーメン　らーめん", "url_link": "https://cafe-menoh.com/", "url_flag": "1" }, "geometry": { "type": "Point", "coordinates": [ 139.9534429, 35.8962456 ] } },
{ "type": "Feature", "properties": { "fid": 51, "title_source": "12月25日オープン！【めん王 ヌードルカフェ Noodles & Cafe MEN-OH】（コイルリンクガレージ柏の葉146街区） | もりのは（モリノハ）", "link_source": "https://morino8.jp/gourmet/men-oh/", "blog_source": "モリノハ", "name_poi": "Noodles＆Cafe MEN-OH", "flag_poi": "ラーメン　らーめん", "url_link": "https://cafe-menoh.com/", "url_flag": "1" }, "geometry": { "type": "Point", "coordinates": [ 139.9534429, 35.8962456 ] } },
{ "type": "Feature", "properties": { "fid": 52, "title_source": "【柏】住宅街に佇む スペシャルティコーヒー専門店「PORTWAY COFFEE」｜カフェ①｜まちっと柏", "link_source": "https://machitto.jp/kashiwa/57641/", "blog_source": "まちっと柏", "name_poi": "PORTWAY COFFEE", "flag_poi": "コーヒー　カフェ", "url_link": "https://portway618.wixsite.com/website", "url_flag": "1" }, "geometry": { "type": "Point", "coordinates": [ 139.9780101, 35.8627961 ] } },
{ "type": "Feature", "properties": { "fid": 53, "title_source": "美味しいカレーとナンが食べたくなったら「RAJA柏店」♪（柏市旭町） | 流山SANPO-BLOG", "link_source": "https://nagareyama-sanpo.net/2023/05/13-52/", "blog_source": "流山SANPO", "name_poi": "RAJA", "flag_poi": "カレー", "url_link": "-", "url_flag": "0" }, "geometry": { "type": "Point", "coordinates": [ 139.968956100000014, 35.860392 ] } },
{ "type": "Feature", "properties": { "fid": 54, "title_source": "柏駅南口徒歩5分 インド・ネパール料理のラージャ柏本店にてカレー2種類をいただけるBセットのランチを堪能！", "link_source": "https://tokatsulunch.com/12640/", "blog_source": "東葛ランチ天国", "name_poi": "RAJA", "flag_poi": "カレー", "url_link": "-", "url_flag": "0" }, "geometry": { "type": "Point", "coordinates": [ 139.968956100000014, 35.860392 ] } },
{ "type": "Feature", "properties": { "fid": 55, "title_source": "【ラーメンヤマダ RAMEN YAMADA】おしゃれで美味しい人気ラーメン屋！メニューや評判は？（流山おおたかの森） | もりのは（モリノハ）", "link_source": "https://morino8.jp/gourmet/ramen-yamada/", "blog_source": "モリノハ", "name_poi": "RAMEN YAMADA", "flag_poi": "ラーメン　らーめん", "url_link": "https://www.instagram.com/ramen.yamada/", "url_flag": "2" }, "geometry": { "type": "Point", "coordinates": [ 139.9216011, 35.8716054 ] } },
{ "type": "Feature", "properties": { "fid": 56, "title_source": "【流山】やはり我が家のナンバー１！！＜RAMENYAMADA＞", "link_source": "https://machitto.jp/kashiwa/54612/", "blog_source": "まちっと柏", "name_poi": "RAMEN YAMADA", "flag_poi": "ラーメン　らーめん", "url_link": "https://www.instagram.com/ramen.yamada/", "url_flag": "2" }, "geometry": { "type": "Point", "coordinates": [ 139.9216011, 35.8716054 ] } },
{ "type": "Feature", "properties": { "fid": 57, "title_source": "【RAMEN YAMADA】ハマる人がいるのも納得の味", "link_source": "https://nagalulu.com/ramen-yamada/", "blog_source": "ながるる", "name_poi": "RAMEN YAMADA", "flag_poi": "ラーメン　らーめん", "url_link": "https://www.instagram.com/ramen.yamada/", "url_flag": "2" }, "geometry": { "type": "Point", "coordinates": [ 139.9216011, 35.8716054 ] } },
{ "type": "Feature", "properties": { "fid": 58, "title_source": "柏の葉【リ・フラワー】クレープメニューも全紹介！素敵な花屋さん（Re:flower コイル16イチロクゲート柏の葉キャンパス） | もりのは（モリノハ）", "link_source": "https://morino8.jp/gourmet/reflower/", "blog_source": "モリノハ", "name_poi": "Re:flower", "flag_poi": "クレープ　花屋", "url_link": "https://www.instagram.com/re.flower_kashiwanohacampus/", "url_flag": "2" }, "geometry": { "type": "Point", "coordinates": [ 139.951039, 35.901664 ] } },
{ "type": "Feature", "properties": { "fid": 59, "title_source": "【柏市】お花とクレープのお店「Re:flower（リ・フラワー）柏の葉キャンパス店」がオープン！ - mook | Yahoo! JAPAN クリエイターズプログラム", "link_source": "https://creators.yahoo.co.jp/mook/0100213576", "blog_source": "Mook(Yahoo Creators)", "name_poi": "Re:flower", "flag_poi": "クレープ　花屋", "url_link": "https://www.instagram.com/re.flower_kashiwanohacampus/", "url_flag": "2" }, "geometry": { "type": "Point", "coordinates": [ 139.951039, 35.901664 ] } },
{ "type": "Feature", "properties": { "fid": 60, "title_source": "【柏市】行列が絶えないお店「Restaurantカマヘイ」がお客さんに愛される理由 - mook | Yahoo! JAPAN クリエイターズプログラム", "link_source": "https://creators.yahoo.co.jp/mook/0100451916", "blog_source": "Mook(Yahoo Creators)", "name_poi": "Restaurant カマヘイ", "flag_poi": "洋食　レストラン", "url_link": "https://www.instagram.com/restaurant_kamahei/", "url_flag": "2" }, "geometry": { "type": "Point", "coordinates": [ 139.9583879, 35.8911505 ] } },
{ "type": "Feature", "properties": { "fid": 61, "title_source": "【柏】いつも人気のレストランカマヘイでリーズナブルな洋食を｜まちっと柏", "link_source": "https://machitto.jp/kashiwa/20029/", "blog_source": "まちっと柏", "name_poi": "Restaurant カマヘイ", "flag_poi": "洋食　レストラン", "url_link": "https://www.instagram.com/restaurant_kamahei/", "url_flag": "2" }, "geometry": { "type": "Point", "coordinates": [ 139.9583879, 35.8911505 ] } },
{ "type": "Feature", "properties": { "fid": 62, "title_source": "ランチメニューが豪華で嬉しい！柏の葉キャンパス『カマヘイ』 | リビングかしわWeb", "link_source": "https://mrs.living.jp/kashiwa/town_gourmet/reporter/4936604", "blog_source": "リビングかしわ", "name_poi": "Restaurant カマヘイ", "flag_poi": "洋食　レストラン", "url_link": "https://www.instagram.com/restaurant_kamahei/", "url_flag": "2" }, "geometry": { "type": "Point", "coordinates": [ 139.9583879, 35.8911505 ] } },
{ "type": "Feature", "properties": { "fid": 63, "title_source": "あの有名店出身シェフの料理！【S ootakanomori エスおおたかの森】ディナーデートやランチに最適なレストラン♪ | もりのは（モリノハ）", "link_source": "https://morino8.jp/gourmet/s-ootakanomori/", "blog_source": "モリノハ", "name_poi": "S ootakanomori", "flag_poi": "イタリアン　フレンチ　レストラン", "url_link": "https://s-ootakanomori.com/", "url_flag": "1" }, "geometry": { "type": "Point", "coordinates": [ 139.925278, 35.873736 ] } },
{ "type": "Feature", "properties": { "fid": 64, "title_source": "おおたかの森にオープンした「S ootakanomori（エス オオタカノモリ）」は、特別な日に行きたいレストラン | リビングかしわWeb", "link_source": "https://mrs.living.jp/kashiwa/town_gourmet/reporter/4018479", "blog_source": "リビングかしわ", "name_poi": "S ootakanomori", "flag_poi": "イタリアン　フレンチ　レストラン", "url_link": "https://s-ootakanomori.com/", "url_flag": "1" }, "geometry": { "type": "Point", "coordinates": [ 139.925278, 35.873736 ] } },
{ "type": "Feature", "properties": { "fid": 65, "title_source": "★オープン初日レビュー★「サラダショップ the BOX」新鮮サラダの食感はふわふわ！？テラス席でジェラートも満喫♪（流山おおたかの森駅前 広場コンテナ） | もりのは（モリノハ）", "link_source": "https://morino8.jp/gourmet/saladshop-thebox/", "blog_source": "モリノハ", "name_poi": "SALAD shop the BoX", "flag_poi": "サラダ", "url_link": "https://www.instagram.com/saladshop_thebox/", "url_flag": "2" }, "geometry": { "type": "Point", "coordinates": [ 139.925924, 35.870521 ] } },
{ "type": "Feature", "properties": { "fid": 66, "title_source": "SALAD shop “the Box”に興奮！ドレッシングとの相性抜群 – ながるる", "link_source": "https://nagalulu.com/the-box/", "blog_source": "ながるる", "name_poi": "SALAD shop the BoX", "flag_poi": "サラダ", "url_link": "https://www.instagram.com/saladshop_thebox/", "url_flag": "2" }, "geometry": { "type": "Point", "coordinates": [ 139.925924, 35.870521 ] } },
{ "type": "Feature", "properties": { "fid": 67, "title_source": "【スクロップ コーヒーロースターズ Scrop COFFEE ROASTERS】流山おおたかの森SCの人気カフェ&ベーカリー（青山店は閉店） | もりのは（モリノハ）", "link_source": "https://morino8.jp/gourmet/scrop-coffee-roasters/", "blog_source": "モリノハ", "name_poi": "Scrop COFFEE ROASTERS", "flag_poi": "コーヒー　カフェ", "url_link": "https://scrop-coffee-roasters.com/shop/ootaka.html", "url_flag": "1" }, "geometry": { "type": "Point", "coordinates": [ 139.92542, 35.870607 ] } },
{ "type": "Feature", "properties": { "fid": 68, "title_source": "お気に入りのカフェ「Scrop」でサンドウィッチセットランチ☆（おおたかの森SC） | 流山SANPO-BLOG", "link_source": "https://nagareyama-sanpo.net/2023/04/25-50/", "blog_source": "流山SANPO", "name_poi": "Scrop COFFEE ROASTERS", "flag_poi": "コーヒー　カフェ", "url_link": "https://scrop-coffee-roasters.com/shop/ootaka.html", "url_flag": "1" }, "geometry": { "type": "Point", "coordinates": [ 139.92542, 35.870607 ] } },
{ "type": "Feature", "properties": { "fid": 69, "title_source": "美味しいコーヒーを飲みたい時は柏の葉のSOLITO MAGO COFFEE LABO", "link_source": "https://kurowata.com/solito-mago-coffee-labo/", "blog_source": "柏たなかマニア", "name_poi": "SOLITO MAGO COFFEE LABO", "flag_poi": "コーヒー", "url_link": "https://solitomago.thebase.in/about", "url_flag": "1" }, "geometry": { "type": "Point", "coordinates": [ 139.953883100000013, 35.89654 ] } },
{ "type": "Feature", "properties": { "fid": 70, "title_source": "ポートランドで大人気【sweedeedee スウィーディーディー】日本初出店は柏の葉！モーニング・ランチも楽しめるおしゃれカフェ♪(コイルイチロクゲート) | もりのは（モリノハ）", "link_source": "https://morino8.jp/gourmet/sweedeedee/", "blog_source": "モリノハ", "name_poi": "sweedeedee", "flag_poi": "カフェ", "url_link": "https://www.instagram.com/sweedeedeejpn/", "url_flag": "2" }, "geometry": { "type": "Point", "coordinates": [ 139.950976200000014, 35.9012842 ] } },
{ "type": "Feature", "properties": { "fid": 71, "title_source": "『Sweedeedee（スウィー・ディー・ディー）柏の葉』ポートランド発祥のオーガニックカフェ", "link_source": "https://yuropom.com/sweedeedee-kashiwanoha/", "blog_source": "ゆろぽんのおいしいごはん。", "name_poi": "sweedeedee", "flag_poi": "カフェ", "url_link": "https://www.instagram.com/sweedeedeejpn/", "url_flag": "2" }, "geometry": { "type": "Point", "coordinates": [ 139.950976200000014, 35.9012842 ] } },
{ "type": "Feature", "properties": { "fid": 72, "title_source": "柏の葉でおしゃれブランチ＠Sweedeedee（スウィーディーディー）KOIL16Gate内 | リビングかしわWeb", "link_source": "https://mrs.living.jp/kashiwa/town_gourmet/reporter/4866091", "blog_source": "リビングかしわ", "name_poi": "sweedeedee", "flag_poi": "カフェ", "url_link": "https://www.instagram.com/sweedeedeejpn/", "url_flag": "2" }, "geometry": { "type": "Point", "coordinates": [ 139.950976200000014, 35.9012842 ] } },
{ "type": "Feature", "properties": { "fid": 73, "title_source": "[柏の葉キャンパス]「Sweedeedee」の「美桜鶏のココナツカレー煮込み」 | かしわカレー図鑑 【公式】", "link_source": "https://kashiwa-curry.com/sweedeedee-coconut-chicken-curry/", "blog_source": "かしわカレー図鑑", "name_poi": "sweedeedee", "flag_poi": "カフェ", "url_link": "https://www.instagram.com/sweedeedeejpn/", "url_flag": "2" }, "geometry": { "type": "Point", "coordinates": [ 139.950976200000014, 35.9012842 ] } },
{ "type": "Feature", "properties": { "fid": 74, "title_source": "【柏】すごい寒い日こそ、TESHIのアツアツ丼を食べてほしい！", "link_source": "https://machitto.jp/kashiwa/55225/", "blog_source": "まちっと柏", "name_poi": "TESHI", "flag_poi": "ラーメン　らーめん　餃子", "url_link": "-", "url_flag": "0" }, "geometry": { "type": "Point", "coordinates": [ 139.9720892, 35.8591292 ] } },
{ "type": "Feature", "properties": { "fid": 75, "title_source": "『THE DESERT』グランパークホテル ザ・ルクソー南柏でハーフバイキングランチ", "link_source": "https://yuropom.com/the-desert-minamikashiwa/", "blog_source": "ゆろぽんのおいしいごはん。", "name_poi": "THE DESERT", "flag_poi": "レストラン　ビュッフェ", "url_link": "https://grandpark-lx.jp/minamikashiwa/restaurant-bar.html", "url_flag": "1" }, "geometry": { "type": "Point", "coordinates": [ 139.955614700000012, 35.845013 ] } },
{ "type": "Feature", "properties": { "fid": 76, "title_source": "【南柏】祝4周年★ザ・ルクソー南柏でランチバイキング | リビングかしわWeb", "link_source": "https://mrs.living.jp/kashiwa/town_gourmet/reporter/4633176", "blog_source": "リビングかしわ", "name_poi": "THE DESERT", "flag_poi": "レストラン　ビュッフェ", "url_link": "https://grandpark-lx.jp/minamikashiwa/restaurant-bar.html", "url_flag": "1" }, "geometry": { "type": "Point", "coordinates": [ 139.955614700000012, 35.845013 ] } },
{ "type": "Feature", "properties": { "fid": 77, "title_source": "柏の葉キャンパス駅徒歩5分 ティールーム＆ワインバー THE GARDENを初訪問！ オープンサンドとフレッシュハーブティーをいただく！", "link_source": "https://tokatsulunch.com/21253/", "blog_source": "東葛ランチ天国", "name_poi": "The Garden", "flag_poi": "カフェ", "url_link": "https://the-garden-cafe.com/", "url_flag": "1" }, "geometry": { "type": "Point", "coordinates": [ 139.95410050000001, 35.8963769 ] } },
{ "type": "Feature", "properties": { "fid": 78, "title_source": "柏の葉にオープン！ハーブティー＆ワインバー【The Garden ザ ガーデン】上質なフードセレクトショップ（コイルガーデン柏の葉） | もりのは（モリノハ）", "link_source": "https://morino8.jp/gourmet/the-garden/", "blog_source": "モリノハ", "name_poi": "The Garden", "flag_poi": "カフェ", "url_link": "https://the-garden-cafe.com/", "url_flag": "1" }, "geometry": { "type": "Point", "coordinates": [ 139.95410050000001, 35.8963769 ] } },
{ "type": "Feature", "properties": { "fid": 79, "title_source": "【柏市】厳選スイーツ＆ハーブティーのフードセレクトショップ「The Garden(ザ ガーデン）」 - mook | Yahoo! JAPAN クリエイターズプログラム", "link_source": "https://creators.yahoo.co.jp/mook/0100229818", "blog_source": "Mook(Yahoo Creators)", "name_poi": "The Garden", "flag_poi": "カフェ", "url_link": "https://the-garden-cafe.com/", "url_flag": "1" }, "geometry": { "type": "Point", "coordinates": [ 139.95410050000001, 35.8963769 ] } },
{ "type": "Feature", "properties": { "fid": 80, "title_source": "世界中から厳選された食のセレクトカフェ☆Tea Room & Wine Bar 「THE GARDEN」（柏の葉） | 流山SANPO-BLOG", "link_source": "https://nagareyama-sanpo.net/2022/10/12-51/", "blog_source": "流山SANPO", "name_poi": "The Garden", "flag_poi": "カフェ", "url_link": "https://the-garden-cafe.com/", "url_flag": "1" }, "geometry": { "type": "Point", "coordinates": [ 139.954099, 35.8963758 ] } },
{ "type": "Feature", "properties": { "fid": 81, "title_source": "松戸駅近くの室内遊園地「The Kids（ザ・キッズ） ダイエー松戸西口店」で思いっきり遊ぼう！", "link_source": "https://matsudokko.com/?p=8764", "blog_source": "まつどっ子ナビ", "name_poi": "The Kids", "flag_poi": "レジャー", "url_link": "https://www.instagram.com/thekidsjapan/", "url_flag": "2" }, "geometry": { "type": "Point", "coordinates": [ 139.8997972, 35.7864326 ] } },
{ "type": "Feature", "properties": { "fid": 82, "title_source": "“The Kids(ダイエー松戸西口店)”は楽しい遊具が沢山の室内遊園地 – ながるる", "link_source": "https://nagalulu.com/thekids/", "blog_source": "ながるる", "name_poi": "The Kids", "flag_poi": "レジャー", "url_link": "https://www.instagram.com/thekidsjapan/", "url_flag": "2" }, "geometry": { "type": "Point", "coordinates": [ 139.8997972, 35.7864326 ] } },
{ "type": "Feature", "properties": { "fid": 83, "title_source": "YouTube", "link_source": "https://www.youtube.com/watch?v=Y5SACN-web0&t=5s", "blog_source": "柏っ子チャンネル（Youtube）", "name_poi": "The LIFE", "flag_poi": "ビール", "url_link": "https://www.instagram.com/thelife_bymarchebaton/?hl=ja", "url_flag": "2" }, "geometry": { "type": "Point", "coordinates": [ 139.9704002, 35.8610552 ] } },
{ "type": "Feature", "properties": { "fid": 84, "title_source": "『ザ ライフ バイ マルシェバトン柏（THE LIFE by MarcheBATON柏）』サラダバーランチでビタミンチャージ", "link_source": "https://yuropom.com/kashiwa-the-life-by-marchebaton-3/", "blog_source": "ゆろぽんのおいしいごはん。", "name_poi": "The LIFE", "flag_poi": "ビール", "url_link": "https://www.instagram.com/thelife_bymarchebaton/?hl=ja", "url_flag": "2" }, "geometry": { "type": "Point", "coordinates": [ 139.9704002, 35.8610552 ] } },
{ "type": "Feature", "properties": { "fid": 85, "title_source": "グランピング体験が出来るレストラン「The Meat Dutch」", "link_source": "https://nagareyama-sanpo.net/2022/12/20-53/", "blog_source": "流山SANPO", "name_poi": "The Meat Dutch", "flag_poi": "肉　ハンバーグ　レストラン", "url_link": "https://www.the-meat-dutch.com/", "url_flag": "1" }, "geometry": { "type": "Point", "coordinates": [ 139.9544013, 35.8976289 ] } },
{ "type": "Feature", "properties": { "fid": 86, "title_source": "デザートだけでも利用可能◎ミートダッチ（柏の葉T-SITE）", "link_source": "https://machitto.jp/kashiwa/52550/", "blog_source": "まちっと柏", "name_poi": "The Meat Dutch", "flag_poi": "肉　ハンバーグ　レストラン", "url_link": "https://www.the-meat-dutch.com/", "url_flag": "1" }, "geometry": { "type": "Point", "coordinates": [ 139.9544013, 35.8976289 ] } },
{ "type": "Feature", "properties": { "fid": 87, "title_source": "UDCKに展示してある「柏の葉キャンパス」の将来イメージのジオラマを撮影してきた : 柏の葉サイクルライフ", "link_source": "https://kashiwanoha-cycle-life.blog.jp/archives/51855769.html", "blog_source": "柏の葉サイクルライフ", "name_poi": "UDCK", "flag_poi": "", "url_link": "https://www.udck.jp/", "url_flag": "1" }, "geometry": { "type": "Point", "coordinates": [ 139.9525722, 35.894602 ] } },
{ "type": "Feature", "properties": { "fid": 88, "title_source": "パン好きの聖地【Zopf ツオップ】おすすめモーニングや絶品カレーパン！行列ができる松戸の大人気ベーカリー | もりのは（モリノハ）", "link_source": "https://morino8.jp/gourmet/zopf/", "blog_source": "モリノハ", "name_poi": "Zopf", "flag_poi": "パン", "url_link": "https://www.instagram.com/zopf_b.r.l/?hl=ja", "url_flag": "2" }, "geometry": { "type": "Point", "coordinates": [ 139.947868, 35.824427 ] } },
{ "type": "Feature", "properties": { "fid": 89, "title_source": "『アーユーボーワン（AYUBOWAN）柏』スリランカとスパイスの魅力を知るワンプレート", "link_source": "https://yuropom.com/kashiwa-ayubowan/", "blog_source": "ゆろぽんのおいしいごはん。", "name_poi": "アーユーボーワン", "flag_poi": "カレー", "url_link": "https://www.ayubowan.jp/", "url_flag": "1" }, "geometry": { "type": "Point", "coordinates": [ 139.975985900000012, 35.8592557 ] } },
{ "type": "Feature", "properties": { "fid": 90, "title_source": "カレーEAST百名店『アーユーボーワン』の薬膳スリランカカレーで体の中から元気に＠柏駅東口", "link_source": "https://mrs.living.jp/kashiwa/town_gourmet/reporter/4208283", "blog_source": "リビングかしわ", "name_poi": "アーユーボーワン", "flag_poi": "カレー", "url_link": "https://www.ayubowan.jp/", "url_flag": "1" }, "geometry": { "type": "Point", "coordinates": [ 139.975985900000012, 35.8592557 ] } },
{ "type": "Feature", "properties": { "fid": 91, "title_source": "【あけぼの山農業公園】2.2haのヒマワリ畑に大興奮", "link_source": "https://nagalulu.com/akebonoyama-nougyoukouen-sunflower/", "blog_source": "ながるる", "name_poi": "あけぼの山農業公園", "flag_poi": "", "url_link": "https://www.akebonoyama-nougyoukouen.jp/", "url_flag": "1" }, "geometry": { "type": "Point", "coordinates": [ 140.0051398, 35.8945588 ] } },
{ "type": "Feature", "properties": { "fid": 92, "title_source": "ランチも夜ワインバー使いも！【アストーレ ASTORE】 流山おおたかの森駅 徒歩2分（Wine&Craftbeer BARクラフトビール&ワインバー ） | もりのは（モリノハ）", "link_source": "https://morino8.jp/gourmet/astore/", "blog_source": "モリノハ", "name_poi": "アストーレ", "flag_poi": "ビール　アルコール　酒", "url_link": "https://www.instagram.com/astore_wine.and.craftbeer.bar_/", "url_flag": "2" }, "geometry": { "type": "Point", "coordinates": [ 139.923617, 35.871628 ] } },
{ "type": "Feature", "properties": { "fid": 93, "title_source": "流山おおたかの森のASTORE（アストーレ）で、評判のラザニアのランチを｜居酒屋 | リビングかしわWeb", "link_source": "https://mrs.living.jp/kashiwa/town_gourmet/reporter/4926286", "blog_source": "リビングかしわ", "name_poi": "アストーレ", "flag_poi": "ビール　アルコール　酒", "url_link": "https://www.instagram.com/astore_wine.and.craftbeer.bar_/", "url_flag": "2" }, "geometry": { "type": "Point", "coordinates": [ 139.923617, 35.871628 ] } },
{ "type": "Feature", "properties": { "fid": 94, "title_source": "ソムリエさんのいるワインとクラフトビールのお店「ASTORE Wine&Craftbeer Bar」（おおたかの森） | 流山SANPO-BLOG", "link_source": "https://nagareyama-sanpo.net/2021/10/29-38/", "blog_source": "流山SANPO", "name_poi": "アストーレ", "flag_poi": "ビール　アルコール　酒", "url_link": "https://www.instagram.com/astore_wine.and.craftbeer.bar_/", "url_flag": "2" }, "geometry": { "type": "Point", "coordinates": [ 139.923617, 35.871628 ] } },
{ "type": "Feature", "properties": { "fid": 95, "title_source": "ママ友ランチから記念日デートまで♪【アニヴェルセル柏】おしゃれカフェ & アフタヌーンティ（アニランチ） | もりのは（モリノハ）", "link_source": "https://morino8.jp/gourmet/anniversaire/", "blog_source": "モリノハ", "name_poi": "アニヴェルセル柏", "flag_poi": "カフェ　アフタヌーンティー　結婚式場", "url_link": "https://www.instagram.com/avs_kashiwa_cafe_lunch/", "url_flag": "2" }, "geometry": { "type": "Point", "coordinates": [ 139.9548533, 35.8972204 ] } },
{ "type": "Feature", "properties": { "fid": 96, "title_source": "「アニヴェルセル 柏」でアフターヌーンティーとチャペル見学 | リビングかしわWeb", "link_source": "https://mrs.living.jp/kashiwa/town_gourmet/reporter/4367464", "blog_source": "リビングかしわ", "name_poi": "アニヴェルセル柏", "flag_poi": "カフェ　アフタヌーンティー　結婚式場", "url_link": "https://www.instagram.com/avs_kashiwa_cafe_lunch/", "url_flag": "2" }, "geometry": { "type": "Point", "coordinates": [ 139.9548533, 35.8972204 ] } },
{ "type": "Feature", "properties": { "fid": 97, "title_source": "【柏の葉】贅沢ショコラを堪能！「姫気分のアフタヌーンティー」に参加して", "link_source": "https://machitto.jp/kashiwa/55203/", "blog_source": "まちっと柏", "name_poi": "アニヴェルセル柏", "flag_poi": "カフェ　アフタヌーンティー　結婚式場", "url_link": "https://www.instagram.com/avs_kashiwa_cafe_lunch/", "url_flag": "2" }, "geometry": { "type": "Point", "coordinates": [ 139.9548533, 35.8972204 ] } },
{ "type": "Feature", "properties": { "fid": 98, "title_source": "茨城 守谷にある絶品ピッツァをはじめとしたイタリアンを楽しめるお店【il nesso/イルネッソ】 | chikudays", "link_source": "https://chikudays.com/omise/moriya_ilnesso/", "blog_source": "Chiku Days", "name_poi": "イタリアン イルネッソ", "flag_poi": "レストラン", "url_link": "https://il-nesso.com/", "url_flag": "1" }, "geometry": { "type": "Point", "coordinates": [ 139.9768609, 35.9677168 ] } },
{ "type": "Feature", "properties": { "fid": 99, "title_source": "松本潤主演でドラマ化&漫画化もされた【バンビーノ】はランチも楽しめる運河にあるイタリアンバル | もりのは（モリノハ）", "link_source": "https://morino8.jp/gourmet/bambinounga/", "blog_source": "モリノハ", "name_poi": "イタリアンバル バンビーノ", "flag_poi": "レストラン", "url_link": "https://www.instagram.com/bambino.unga/?hl=ja", "url_flag": "2" }, "geometry": { "type": "Point", "coordinates": [ 139.905597, 35.915243 ] } },
{ "type": "Feature", "properties": { "fid": 100, "title_source": "流山のイタリアンバル「バンビーノ」、シェフは松潤のドラマ＆漫画『バンビーノ』のモデル｜居酒屋 | リビングかしわWeb", "link_source": "https://mrs.living.jp/kashiwa/town_gourmet/reporter/1646054", "blog_source": "リビングかしわ", "name_poi": "イタリアンバル バンビーノ", "flag_poi": "レストラン", "url_link": "https://www.instagram.com/bambino.unga/?hl=ja", "url_flag": "2" }, "geometry": { "type": "Point", "coordinates": [ 139.905597, 35.915243 ] } },
{ "type": "Feature", "properties": { "fid": 101, "title_source": "オーガニック野菜市 GOOD NEIGHBORS MARKET", "link_source": "https://blog.goo.ne.jp/kasiwanohappa/e/9ee1497a5cea81f8da7dc017c830e0e4", "blog_source": "柏の葉STORY", "name_poi": "オーガニック野菜市 GOOD NEIGHBORS MARKET", "flag_poi": "", "url_link": "-", "url_flag": "0" }, "geometry": { "type": "Point", "coordinates": [ 139.953361, 35.89604 ] } },
{ "type": "Feature", "properties": { "fid": 102, "title_source": "老舗の美味しいイタリアン「オステリア シャーラ 」（流山市鰭ヶ崎） | 流山SANPO-BLOG", "link_source": "https://nagareyama-sanpo.net/2020/06/22-26/", "blog_source": "流山SANPO", "name_poi": "オステリア シャーラ", "flag_poi": "イタリアン　レストラン", "url_link": "https://www.osteria-sara.com/", "url_flag": "1" }, "geometry": { "type": "Point", "coordinates": [ 139.91343, 35.843119 ] } },
{ "type": "Feature", "properties": { "fid": 103, "title_source": "流山の【Osteria Sara オステリア シャーラ】は千葉県最古のイタリアン！？ミシュランのシェフも通いつめる最高峰の味 | もりのは（モリノハ）", "link_source": "https://morino8.jp/gourmet/osteria-sara/", "blog_source": "モリノハ", "name_poi": "オステリア シャーラ", "flag_poi": "イタリアン　レストラン", "url_link": "https://www.osteria-sara.com/", "url_flag": "1" }, "geometry": { "type": "Point", "coordinates": [ 139.91343, 35.843119 ] } },
{ "type": "Feature", "properties": { "fid": 104, "title_source": "ららぽーと柏の葉でつい買っちゃう！おめで鯛焼き本舗の【鯛焼き】", "link_source": "https://kurowata.com/omedetaiyaki/", "blog_source": "柏たなかマニア", "name_poi": "おめで鯛焼き本舗", "flag_poi": "たい焼き", "url_link": "-", "url_flag": "0" }, "geometry": { "type": "Point", "coordinates": [ 139.9517871, 35.8936514 ] } },
{ "type": "Feature", "properties": { "fid": 105, "title_source": "東京大学柏キャンパス【お魚倶楽部 はま】一般客も大歓迎！学食のレベルを超えた珍しい魚が楽しめるお寿司屋さん | もりのは（モリノハ）", "link_source": "https://morino8.jp/gourmet/hamaosakana/", "blog_source": "モリノハ", "name_poi": "お魚倶楽部 はま", "flag_poi": "寿司　すし", "url_link": "https://twitter.com/hamaosakana", "url_flag": "3" }, "geometry": { "type": "Point", "coordinates": [ 139.9332858, 35.8997103 ] } },
{ "type": "Feature", "properties": { "fid": 106, "title_source": "まちレポ！流山【ガーデン・ベリーズ】～その数300種以上！ベーグル、ハード系、スイーツ系…どうぞ迷ってください！～ | まちしるべ®", "link_source": "https://machisirube.com/machi-repo/14104", "blog_source": "まちしるべ", "name_poi": "ガーデン・ベリーズ", "flag_poi": "パン", "url_link": "https://www.garden-berries.com/", "url_flag": "1" }, "geometry": { "type": "Point", "coordinates": [ 139.9163474, 35.8776304 ] } },
{ "type": "Feature", "properties": { "fid": 107, "title_source": "初石の【ガーデン・ベリーズ】何度も食べたくなる街のパン屋さん", "link_source": "https://nagalulu.com/garden-berries/", "blog_source": "ながるる", "name_poi": "ガーデン・ベリーズ", "flag_poi": "パン", "url_link": "https://www.garden-berries.com/", "url_flag": "1" }, "geometry": { "type": "Point", "coordinates": [ 139.9163474, 35.8776304 ] } },
{ "type": "Feature", "properties": { "fid": 108, "title_source": "流山のおしゃれ古民家cafe【カフェアンティグア ANTIGUA】自然に囲まれるランチタイム♪（最寄駅：流山セントラルパーク） | もりのは（モリノハ）", "link_source": "https://morino8.jp/gourmet/cafe-antigua/", "blog_source": "モリノハ", "name_poi": "カフェ アンティグア", "flag_poi": "", "url_link": "-", "url_flag": "0" }, "geometry": { "type": "Point", "coordinates": [ 139.909088, 35.8596 ] } },
{ "type": "Feature", "properties": { "fid": 109, "title_source": "【柏市】カフェドジュアンでランチ、樹杏39周年記念", "link_source": "https://mrs.living.jp/kashiwa/shopping/reporter/4828371", "blog_source": "リビングかしわ", "name_poi": "カフェドジュアン", "flag_poi": "カフェ", "url_link": "https://www.juin.co.jp/shop", "url_flag": "1" }, "geometry": { "type": "Point", "coordinates": [ 139.9728571, 35.8765771 ] } },
{ "type": "Feature", "properties": { "fid": 110, "title_source": "おおたかの森に新しくオープンしたカフェ「Kafe Blanka」に行ってきました♪ | 流山SANPO-BLOG", "link_source": "https://nagareyama-sanpo.net/2021/01/8-29/", "blog_source": "流山SANPO", "name_poi": "カフェブランカ", "flag_poi": "", "url_link": "https://www.instagram.com/_kafeblanka_/", "url_flag": "2" }, "geometry": { "type": "Point", "coordinates": [ 139.923572799999988, 35.8707598 ] } },
{ "type": "Feature", "properties": { "fid": 111, "title_source": "YouTube", "link_source": "https://www.youtube.com/watch?v=HKOevc0_tKk&t=75s", "blog_source": "柏っ子チャンネル（Youtube）", "name_poi": "カフェペジーブル", "flag_poi": "カフェ　パン", "url_link": "https://paisible-wanahome.com/store/paisible-kashiwa/", "url_flag": "1" }, "geometry": { "type": "Point", "coordinates": [ 139.985618499999987, 35.8696721 ] } },
{ "type": "Feature", "properties": { "fid": 112, "title_source": "【柏】有名店は間違いなし！カフェマリオシフォンに行ってきた！｜まちっと柏", "link_source": "https://machitto.jp/kashiwa/54643/", "blog_source": "まちっと柏", "name_poi": "カフェマリオシフォン", "flag_poi": "ケーキ", "url_link": "https://www.instagram.com/cafemariochiffon/?hl=ja", "url_flag": "2" }, "geometry": { "type": "Point", "coordinates": [ 139.9728536, 35.8602552 ] } },
{ "type": "Feature", "properties": { "fid": 113, "title_source": "当日焼きのシフォンケーキ専門店カフェマリオシフォン＠柏駅東口 | リビングかしわWeb", "link_source": "https://mrs.living.jp/kashiwa/town_gourmet/reporter/4403665", "blog_source": "リビングかしわ", "name_poi": "カフェマリオシフォン", "flag_poi": "ケーキ", "url_link": "https://www.instagram.com/cafemariochiffon/?hl=ja", "url_flag": "2" }, "geometry": { "type": "Point", "coordinates": [ 139.9728536, 35.8602552 ] } },
{ "type": "Feature", "properties": { "fid": 114, "title_source": "テラスの開放感♪【CAFE LEXCEL カフェレクセル】流山おおたかの森S･Cこかげテラス（駅直結のドトール系列カフェ） | もりのは（モリノハ）", "link_source": "https://morino8.jp/gourmet/lexcel/", "blog_source": "モリノハ", "name_poi": "カフェレクセル", "flag_poi": "コーヒー", "url_link": "https://www.doutor.co.jp/lex/", "url_flag": "1" }, "geometry": { "type": "Point", "coordinates": [ 139.924711, 35.871479 ] } },
{ "type": "Feature", "properties": { "fid": 115, "title_source": "ランチもスタッフさんも◎の「CAFE LEXCEL」流山おおたかの森店 | 流山SANPO-BLOG", "link_source": "https://nagareyama-sanpo.net/2021/09/15-41/", "blog_source": "流山SANPO", "name_poi": "カフェレクセル", "flag_poi": "コーヒー", "url_link": "https://www.doutor.co.jp/lex/", "url_flag": "1" }, "geometry": { "type": "Point", "coordinates": [ 139.924711, 35.871479 ] } },
{ "type": "Feature", "properties": { "fid": 116, "title_source": "『カフェ・レストラン アゴーラ』柏の葉で見晴らしのいいカジュアルランチ", "link_source": "https://yuropom.com/kashiwanoha-cafe-agora/", "blog_source": "ゆろぽんのおいしいごはん。", "name_poi": "カフェレストランAGORA", "flag_poi": "レストラン", "url_link": "https://www.instagram.com/agora_kasiwanoha/?hl=ja", "url_flag": "2" }, "geometry": { "type": "Point", "coordinates": [ 139.9517842, 35.8947986 ] } },
{ "type": "Feature", "properties": { "fid": 117, "title_source": "「カフェレストラン AGORA（アゴーラ）」でランチオードブルセット♪（柏の葉） | 流山SANPO-BLOG", "link_source": "https://nagareyama-sanpo.net/2022/12/18-55/", "blog_source": "流山SANPO", "name_poi": "カフェレストランAGORA", "flag_poi": "レストラン", "url_link": "https://www.instagram.com/agora_kasiwanoha/?hl=ja", "url_flag": "2" }, "geometry": { "type": "Point", "coordinates": [ 139.9517842, 35.8947986 ] } },
{ "type": "Feature", "properties": { "fid": 118, "title_source": "希少な尾崎牛がリーズナブル！【カルビ屋大福 柏の葉店】子どもからお年寄りまで大人気の焼肉屋さん | もりのは（モリノハ）", "link_source": "https://morino8.jp/gourmet/karubiya_daifuku/", "blog_source": "モリノハ", "name_poi": "カルビ屋大福", "flag_poi": "焼肉", "url_link": "https://www.instagram.com/daifuku_kasiwano8/", "url_flag": "2" }, "geometry": { "type": "Point", "coordinates": [ 139.928504, 35.899394 ] } },
{ "type": "Feature", "properties": { "fid": 119, "title_source": "柏の葉キャンパス駅徒歩3分 生パスタ専門店 Carbono カルボーノ ららぽーと柏の葉店を初訪問！ ふわふわレッドカルボナーラと、十勝産モッツァレラのマルゲリータピッツァをおいしくいただく！", "link_source": "https://tokatsulunch.com/26382/", "blog_source": "東葛ランチ天国", "name_poi": "カルボーノ", "flag_poi": "イタリアン　レストラン", "url_link": "", "url_flag": "1" }, "geometry": { "type": "Point", "coordinates": [ 139.9512925, 35.8939975 ] } },
{ "type": "Feature", "properties": { "fid": 120, "title_source": "老舗のカレー専門店【カレーの店 ボンベイ】柏と流山に4店舗を構える大人気のカレー屋さん！キッチンカーも？ | もりのは（モリノハ）", "link_source": "https://morino8.jp/gourmet/curryhousebombay/", "blog_source": "モリノハ", "name_poi": "カレーの店ボンベイ", "flag_poi": "カレー", "url_link": "-", "url_flag": "0" }, "geometry": { "type": "Point", "coordinates": [ 139.974228, 35.860191 ] } },
{ "type": "Feature", "properties": { "fid": 121, "title_source": "老舗のカレー専門店【カレーの店 ボンベイ】柏と流山に4店舗を構える大人気のカレー屋さん！キッチンカーも？ | もりのは（モリノハ）", "link_source": "https://morino8.jp/gourmet/curryhousebombay/", "blog_source": "モリノハ", "name_poi": "カレーの店ボンベイ", "flag_poi": "カレー", "url_link": "-", "url_flag": "0" }, "geometry": { "type": "Point", "coordinates": [ 139.96906, 35.860772 ] } },
{ "type": "Feature", "properties": { "fid": 122, "title_source": "老舗のカレー専門店【カレーの店 ボンベイ】柏と流山に4店舗を構える大人気のカレー屋さん！キッチンカーも？ | もりのは（モリノハ）", "link_source": "https://morino8.jp/gourmet/curryhousebombay/", "blog_source": "モリノハ", "name_poi": "カレーの店ボンベイ", "flag_poi": "カレー", "url_link": "-", "url_flag": "0" }, "geometry": { "type": "Point", "coordinates": [ 139.925696, 35.870227 ] } },
{ "type": "Feature", "properties": { "fid": 123, "title_source": "名物『賞味期限59秒の生つくね』が絶品！【か志わ 熟成鶏 十八番 おおたかの森店】デートや記念日にぴったり大人の焼き鳥屋さん | もりのは（モリノハ）", "link_source": "https://morino8.jp/gourmet/kashiwa-jukuseidori/", "blog_source": "モリノハ", "name_poi": "か志わ熟成鶏十八番", "flag_poi": "焼き鳥　居酒屋", "url_link": "-", "url_flag": "0" }, "geometry": { "type": "Point", "coordinates": [ 139.923579, 35.871123 ] } },
{ "type": "Feature", "properties": { "fid": 124, "title_source": "居心地の良いcafe「キジカフェ」さんのランチへ☆（南流山） | 流山SANPO-BLOG", "link_source": "https://nagareyama-sanpo.net/2020/06/30-26/", "blog_source": "流山SANPO", "name_poi": "キジカフェ", "flag_poi": "", "url_link": "https://www.instagram.com/kijicafe/", "url_flag": "2" }, "geometry": { "type": "Point", "coordinates": [ 139.9026419, 35.8406396 ] } },
{ "type": "Feature", "properties": { "fid": 125, "title_source": "南流山のおしゃれな「KIJI CAFE（キジカフェ）」は、オーナー夫妻が手がけたくつろぎの空間 | リビングかしわWeb", "link_source": "https://mrs.living.jp/kashiwa/town_gourmet/reporter/4653420", "blog_source": "リビングかしわ", "name_poi": "キジカフェ", "flag_poi": "", "url_link": "https://www.instagram.com/kijicafe/", "url_flag": "2" }, "geometry": { "type": "Point", "coordinates": [ 139.9026419, 35.8406396 ] } },
{ "type": "Feature", "properties": { "fid": 126, "title_source": "【南流山】キジカフェはサバサンドもエスニックもある素敵カフェ | マンガも描けるイラストレーター・ノグチノブコのホームページ", "link_source": "https://noguchinobuko.com/20220709/", "blog_source": "ノグチノブコのページ", "name_poi": "キジカフェ", "flag_poi": "", "url_link": "https://www.instagram.com/kijicafe/", "url_flag": "2" }, "geometry": { "type": "Point", "coordinates": [ 139.9026419, 35.8406396 ] } },
{ "type": "Feature", "properties": { "fid": 127, "title_source": "しょうゆのことがなんでもわかる！「キッコーマンもの知りしょうゆ館」の工場見学再開。 - 40papa", "link_source": "https://40papa.com/outdoor/31436/", "blog_source": "40papa", "name_poi": "キッコーマンもの知りしょうゆ館", "flag_poi": "レジャー", "url_link": "https://www.kikkoman.co.jp/enjoys/factory/noda/index.html", "url_flag": "1" }, "geometry": { "type": "Point", "coordinates": [ 139.870191299999988, 35.9415409 ] } },
{ "type": "Feature", "properties": { "fid": 128, "title_source": "【柏】どら焼き60円！超お得な 木村屋総本店柏工場の工場直売店「きむらやらむき」へ行ってみた｜まちっと柏", "link_source": "https://machitto.jp/kashiwa/29279/", "blog_source": "まちっと柏", "name_poi": "きむらややむき", "flag_poi": "パン", "url_link": "-", "url_flag": "0" }, "geometry": { "type": "Point", "coordinates": [ 139.94804, 35.9064985 ] } },
{ "type": "Feature", "properties": { "fid": 129, "title_source": "【柏市】駐車場は？ 2022年4月4日（月）オープンしたキムラヤのパン直売所「きむらやらむき」の道順 - mook | Yahoo! JAPAN クリエイターズプログラム", "link_source": "https://creators.yahoo.co.jp/mook/0100220485", "blog_source": "Mook(Yahoo Creators)", "name_poi": "きむらややむき", "flag_poi": "パン", "url_link": "-", "url_flag": "0" }, "geometry": { "type": "Point", "coordinates": [ 139.94804, 35.9064985 ] } },
{ "type": "Feature", "properties": { "fid": 130, "title_source": "キムラヤのパン直売所！【きむらやらむき】銀座 木村屋總本店 柏工場に復活オープン♪営業時間や販売するパンに注目 | もりのは（モリノハ）", "link_source": "https://morino8.jp/gourmet/kimuraya-sohonten/", "blog_source": "モリノハ", "name_poi": "きむらややむき", "flag_poi": "パン", "url_link": "-", "url_flag": "0" }, "geometry": { "type": "Point", "coordinates": [ 139.94804, 35.9064985 ] } },
{ "type": "Feature", "properties": { "fid": 131, "title_source": "工場直売のベーカリー「木村屋総本店 柏工場直売店 きむらやらむき」の午後の品揃えをチラッと写真で紹介 : 柏の葉サイクルライフ", "link_source": "https://kashiwanoha-cycle-life.blog.jp/archives/51844446.html", "blog_source": "柏の葉サイクルライフ", "name_poi": "きむらややむき", "flag_poi": "パン", "url_link": "-", "url_flag": "0" }, "geometry": { "type": "Point", "coordinates": [ 139.94804, 35.9064985 ] } },
{ "type": "Feature", "properties": { "fid": 132, "title_source": "隠れた名店！豊四季【餃子ショップ ギョーザショップ】にんにくたっぷりでご飯やビールと相性抜群！ | もりのは（モリノハ）", "link_source": "https://morino8.jp/gourmet/gyoza-shop/", "blog_source": "モリノハ", "name_poi": "ギョーザショップ", "flag_poi": "餃子", "url_link": "-", "url_flag": "0" }, "geometry": { "type": "Point", "coordinates": [ 139.940869, 35.867752 ] } },
{ "type": "Feature", "properties": { "fid": 133, "title_source": "流山市初石の大人気ラーメン【キリヤ】The Noodles & Saloon Kiriya", "link_source": "https://morino8.jp/gourmet/kiriya/", "blog_source": "モリノハ", "name_poi": "キリヤ", "flag_poi": "ラーメン　らーめん", "url_link": "-", "url_flag": "0" }, "geometry": { "type": "Point", "coordinates": [ 139.916458799999987, 35.8818505 ] } },
{ "type": "Feature", "properties": { "fid": 134, "title_source": "初石の絶品ラーメンを求めて行列に並んでみた！【ザ ヌードルズ＆サルーン キリヤ】＠流山 | リビングかしわWeb", "link_source": "https://mrs.living.jp/kashiwa/town_gourmet/reporter/3359534", "blog_source": "リビングかしわ", "name_poi": "キリヤ", "flag_poi": "ラーメン　らーめん", "url_link": "-", "url_flag": "0" }, "geometry": { "type": "Point", "coordinates": [ 139.916458799999987, 35.8818505 ] } },
{ "type": "Feature", "properties": { "fid": 135, "title_source": "まちレポ！流山『The Noodles＆Saloon Kiriya（ザ ヌードルズ＆サルーン キリヤ）』～ラーメン好きの情熱が詰まったスープ～ | まちしるべ®", "link_source": "https://machisirube.com/machi-repo/13851", "blog_source": "まちしるべ", "name_poi": "キリヤ", "flag_poi": "ラーメン　らーめん", "url_link": "-", "url_flag": "0" }, "geometry": { "type": "Point", "coordinates": [ 139.916458799999987, 35.8818505 ] } },
{ "type": "Feature", "properties": { "fid": 136, "title_source": "名物はワンコイン大盛りからあげ！【味処ぎん亭】キッチンカーで話題の本店は柏♪コスパ最強テイクアウトランチや定食 | もりのは（モリノハ）", "link_source": "https://morino8.jp/gourmet/gintei/", "blog_source": "モリノハ", "name_poi": "ぎん亭", "flag_poi": "唐揚げ　から揚げ　キッチンカー", "url_link": "https://www.instagram.com/gincafe7070/", "url_flag": "2" }, "geometry": { "type": "Point", "coordinates": [ 139.94432, 35.877254 ] } },
{ "type": "Feature", "properties": { "fid": 137, "title_source": "キッチンカーと本店で営業中！ワンコインで美味な【味処ぎん亭】の唐揚げ(´∀｀) | 柏たなかマニア", "link_source": "https://kurowata.com/to-go-gintei/", "blog_source": "柏たなかマニア", "name_poi": "ぎん亭", "flag_poi": "唐揚げ　から揚げ　キッチンカー", "url_link": "https://www.instagram.com/gincafe7070/", "url_flag": "2" }, "geometry": { "type": "Point", "coordinates": [ 139.94432, 35.877254 ] } },
{ "type": "Feature", "properties": { "fid": 138, "title_source": "【柏】大盛りからあげ600円！ぎん亭のキッチンカーを発見｜まちっと柏", "link_source": "https://machitto.jp/kashiwa/49472/", "blog_source": "まちっと柏", "name_poi": "ぎん亭", "flag_poi": "唐揚げ　から揚げ　キッチンカー", "url_link": "https://www.instagram.com/gincafe7070/", "url_flag": "2" }, "geometry": { "type": "Point", "coordinates": [ 139.94432, 35.877254 ] } },
{ "type": "Feature", "properties": { "fid": 139, "title_source": "こだわりの美味しさ「パン工房 クーロンヌおおたかの森」", "link_source": "https://40papa.com/gourmet/30936/", "blog_source": "40papa", "name_poi": "クーロンヌ", "flag_poi": "パン", "url_link": "https://www.couronne.co.jp/shop/otakanomori", "url_flag": "1" }, "geometry": { "type": "Point", "coordinates": [ 139.9211867, 35.8725034 ] } },
{ "type": "Feature", "properties": { "fid": 140, "title_source": "【パン工房クーロンヌ】COTOE流山おおたかの森に2022年9月23日オープン！つくばや那須にもある大人気ベーカリー | もりのは（モリノハ）", "link_source": "https://morino8.jp/gourmet/couronne/", "blog_source": "モリノハ", "name_poi": "クーロンヌ", "flag_poi": "パン", "url_link": "https://www.couronne.co.jp/shop/otakanomori", "url_flag": "1" }, "geometry": { "type": "Point", "coordinates": [ 139.9211867, 35.8725034 ] } },
{ "type": "Feature", "properties": { "fid": 141, "title_source": "【流山】行列が絶えない名店がおおたかの森にオープン！＜クーロンヌおおたかの森＞｜まちっと柏", "link_source": "https://machitto.jp/kashiwa/44233/", "blog_source": "まちっと柏", "name_poi": "クーロンヌ", "flag_poi": "パン", "url_link": "https://www.couronne.co.jp/shop/otakanomori", "url_flag": "1" }, "geometry": { "type": "Point", "coordinates": [ 139.9211867, 35.8725034 ] } },
{ "type": "Feature", "properties": { "fid": 142, "title_source": "【Grün #グリューン スムージー＆園芸のお店】コイルリンクガレージ柏の葉キャンパス(2022年3月1日プレ・3月12日グランドオープン) | もりのは（モリノハ）", "link_source": "https://morino8.jp/gourmet/gruen/", "blog_source": "モリノハ", "name_poi": "グリューン", "flag_poi": "花屋", "url_link": "https://www.gruen.jp/", "url_flag": "1" }, "geometry": { "type": "Point", "coordinates": [ 139.95331, 35.89583 ] } },
{ "type": "Feature", "properties": { "fid": 143, "title_source": "柏の葉の「Grün（グリューン）」は100％植物由来のスムージーと700種の観葉植物が魅力 | リビングかしわWeb", "link_source": "https://mrs.living.jp/kashiwa/town_gourmet/reporter/4689883", "blog_source": "リビングかしわ", "name_poi": "グリューン", "flag_poi": "花屋", "url_link": "https://www.gruen.jp/", "url_flag": "1" }, "geometry": { "type": "Point", "coordinates": [ 139.95331, 35.89583 ] } },
{ "type": "Feature", "properties": { "fid": 144, "title_source": "【柏】観葉植物とスムージーのお店🍃Grün（グリューン）柏の葉｜まちっと柏", "link_source": "https://machitto.jp/kashiwa/48450/", "blog_source": "まちっと柏", "name_poi": "グリューン", "flag_poi": "花屋", "url_link": "https://www.gruen.jp/", "url_flag": "1" }, "geometry": { "type": "Point", "coordinates": [ 139.95331, 35.89583 ] } },
{ "type": "Feature", "properties": { "fid": 145, "title_source": "柏の葉キャンパス駅徒歩5分 ボタニカル&スムージーショップ Grün（グリューン）を初訪問！ ピニャグリーンスムージーをおいしくいただく！", "link_source": "https://tokatsulunch.com/20643/", "blog_source": "東葛ランチ天国", "name_poi": "グリューン", "flag_poi": "花屋", "url_link": "https://www.gruen.jp/", "url_flag": "1" }, "geometry": { "type": "Point", "coordinates": [ 139.95331, 35.89583 ] } },
{ "type": "Feature", "properties": { "fid": 146, "title_source": "売れ切れる日も多い！？【コウジサンドイッチ KOUJI SANDWITCH】野田市で行列のできる大人気店♪カフェ・ランチ・テイクアウトも可 | もりのは（モリノハ）", "link_source": "https://morino8.jp/gourmet/koujisandwitch/", "blog_source": "モリノハ", "name_poi": "コウジサンドイッチ", "flag_poi": "カフェ", "url_link": "https://www.instagram.com/koujisandwitch/?hl=ja", "url_flag": "2" }, "geometry": { "type": "Point", "coordinates": [ 139.880409, 35.933286 ] } },
{ "type": "Feature", "properties": { "fid": 147, "title_source": "『コウジ サンドウィッチ スズムラ』野田市で行列のサンドイッチ屋さん", "link_source": "https://yuropom.com/noda-kouji-sandwitch-suzumura/", "blog_source": "ゆろぽんのおいしいごはん。", "name_poi": "コウジサンドイッチ", "flag_poi": "カフェ", "url_link": "https://www.instagram.com/koujisandwitch/?hl=ja", "url_flag": "2" }, "geometry": { "type": "Point", "coordinates": [ 139.880409, 35.933286 ] } },
{ "type": "Feature", "properties": { "fid": 148, "title_source": "行列ができる人気のサンドイッチ屋さん！【コウジサンドイッチスズムラ】をテイクアウト(´▽｀) | 柏たなかマニア", "link_source": "https://kurowata.com/koujisuzumura/", "blog_source": "柏たなかマニア", "name_poi": "コウジサンドイッチ", "flag_poi": "カフェ", "url_link": "https://www.instagram.com/koujisandwitch/?hl=ja", "url_flag": "2" }, "geometry": { "type": "Point", "coordinates": [ 139.880409, 35.933286 ] } },
{ "type": "Feature", "properties": { "fid": 149, "title_source": "行列ができる大人気店【こってりらーめん誉】こってり…だけどあっさり！？癖になる味でリピーターの多いラーメン店（柏駅） | もりのは（モリノハ）", "link_source": "https://morino8.jp/gourmet/ra-menhomare/", "blog_source": "モリノハ", "name_poi": "こってりらーめん誉", "flag_poi": "ラーメン", "url_link": "-", "url_flag": "0" }, "geometry": { "type": "Point", "coordinates": [ 139.968905, 35.860366 ] } },
{ "type": "Feature", "properties": { "fid": 150, "title_source": "千葉県初出店コッペパン専門【コッペ田島 柏酒井根店】星乃珈琲店に併設！どんなメニューがあるの？（柏市） | もりのは（モリノハ）", "link_source": "https://morino8.jp/gourmet/pan_no_tajima/", "blog_source": "モリノハ", "name_poi": "コッペ田島", "flag_poi": "パン", "url_link": "https://www.instagram.com/pan_no_tajima/", "url_flag": "2" }, "geometry": { "type": "Point", "coordinates": [ 139.967723, 35.823133 ] } },
{ "type": "Feature", "properties": { "fid": 151, "title_source": "柏市酒井根にオープンしたコッペ田島 柏酒井根店を初訪問！コッペパン7種類を購入！コッペパンはサンドしても揚げてもうまい！", "link_source": "https://tokatsulunch.com/19098/", "blog_source": "東葛ランチ天国", "name_poi": "コッペ田島", "flag_poi": "パン", "url_link": "https://www.instagram.com/pan_no_tajima/", "url_flag": "2" }, "geometry": { "type": "Point", "coordinates": [ 139.967723, 35.823133 ] } },
{ "type": "Feature", "properties": { "fid": 152, "title_source": "『コッペ田島 柏酒井根店』甘い系もお惣菜系も♪できたて大きなコッペパン", "link_source": "https://yuropom.com/masuo-pan-no-tajima/", "blog_source": "ゆろぽんのおいしいごはん。", "name_poi": "コッペ田島", "flag_poi": "パン", "url_link": "https://www.instagram.com/pan_no_tajima/", "url_flag": "2" }, "geometry": { "type": "Point", "coordinates": [ 139.967723, 35.823133 ] } },
{ "type": "Feature", "properties": { "fid": 153, "title_source": "【柏市】どうしていつも行列が絶えないの？ コッペパン専門店「コッペ田島柏酒井根店」へ行ってみた！ - mook | Yahoo! JAPAN クリエイターズプログラム", "link_source": "https://creators.yahoo.co.jp/mook/0100200283", "blog_source": "Mook(Yahoo Creators)", "name_poi": "コッペ田島", "flag_poi": "パン", "url_link": "https://www.instagram.com/pan_no_tajima/", "url_flag": "2" }, "geometry": { "type": "Point", "coordinates": [ 139.967723, 35.823133 ] } },
{ "type": "Feature", "properties": { "fid": 154, "title_source": "【ごはんとわたし】流山おおたかの森SCフラップス4階で「やまやの明太子おかわり食べ放題！？」ご飯メニューは？ | もりのは（モリノハ）", "link_source": "https://morino8.jp/gourmet/gohan-watashi/", "blog_source": "モリノハ", "name_poi": "ごはんとわたし", "flag_poi": "和食　レストラン", "url_link": "https://restaurant-yamaya.com/brand/gohantowatashi/restaurant/otakanomori", "url_flag": "1" }, "geometry": { "type": "Point", "coordinates": [ 139.924635, 35.871067 ] } },
{ "type": "Feature", "properties": { "fid": 155, "title_source": "柏の葉・おおたかの森【コメスタ】は野田市に本店を構える人気イタリアンレストラン「三井ガーデンホテル 柏の葉キャンパス駅」「流山おおたかの森SC 高島屋」 | もりのは（モリノハ）", "link_source": "https://morino8.jp/gourmet/comestadome/", "blog_source": "モリノハ", "name_poi": "コメスタ", "flag_poi": "イタリアン　レストラン", "url_link": "-", "url_flag": "0" }, "geometry": { "type": "Point", "coordinates": [ 139.885133, 35.943186 ] } },
{ "type": "Feature", "properties": { "fid": 156, "title_source": "柏の葉・おおたかの森【コメスタ】は野田市に本店を構える人気イタリアンレストラン「三井ガーデンホテル 柏の葉キャンパス駅」「流山おおたかの森SC 高島屋」 | もりのは（モリノハ）", "link_source": "https://morino8.jp/gourmet/comestadome/", "blog_source": "モリノハ", "name_poi": "コメスタ柏の葉", "flag_poi": "イタリアン　レストラン", "url_link": "-", "url_flag": "0" }, "geometry": { "type": "Point", "coordinates": [ 139.9524821, 35.8952839 ] } },
{ "type": "Feature", "properties": { "fid": 157, "title_source": "柏の葉のホテルでブッフェモーニング！三井ガーデンホテル「コメ・スタ」 | リビングかしわWeb", "link_source": "https://mrs.living.jp/kashiwa/town_gourmet/reporter/4526760", "blog_source": "リビングかしわ", "name_poi": "コメスタ柏の葉", "flag_poi": "イタリアン　レストラン", "url_link": "-", "url_flag": "0" }, "geometry": { "type": "Point", "coordinates": [ 139.9524821, 35.8952839 ] } },
{ "type": "Feature", "properties": { "fid": 158, "title_source": "『イタリアレストランコメ・スタ三井ガーデンホテル柏の葉』シャキシャキ地産野菜のイタリアン", "link_source": "https://yuropom.com/kashiwanoha-comesta/", "blog_source": "ゆろぽんのおいしいごはん。", "name_poi": "コメスタ柏の葉", "flag_poi": "イタリアン　レストラン", "url_link": "-", "url_flag": "0" }, "geometry": { "type": "Point", "coordinates": [ 139.9524821, 35.8952839 ] } },
{ "type": "Feature", "properties": { "fid": 159, "title_source": "こんぶくろ池自然博物公園(こんぶくろ池・掩体壕・一号近隣公園)を散策 – ながるる", "link_source": "https://nagalulu.com/konbukuroike/", "blog_source": "ながるる", "name_poi": "こんぶくろ池", "flag_poi": "公園", "url_link": "https://www.konbukuroike.com/", "url_flag": "1" }, "geometry": { "type": "Point", "coordinates": [ 139.942947, 35.9028289 ] } },
{ "type": "Feature", "properties": { "fid": 160, "title_source": "「こんぶくろ池自然博物公園」の「こんぶくろ池」までの最短路を歩いてみた : 柏の葉サイクルライフ", "link_source": "https://kashiwanoha-cycle-life.blog.jp/archives/51839905.html", "blog_source": "柏の葉サイクルライフ", "name_poi": "こんぶくろ池", "flag_poi": "公園", "url_link": "https://www.konbukuroike.com/", "url_flag": "1" }, "geometry": { "type": "Point", "coordinates": [ 139.942947, 35.9028289 ] } },
{ "type": "Feature", "properties": { "fid": 161, "title_source": "T-siteのサニーダイナーで美味しいハンバーガーを堪能しよう! – ながるる", "link_source": "https://nagalulu.com/sunnydiner/", "blog_source": "ながるる", "name_poi": "サニーダイナー", "flag_poi": "ハンバーガー", "url_link": "https://www.sunnydiner.com/", "url_flag": "1" }, "geometry": { "type": "Point", "coordinates": [ 139.9537871, 35.8986332 ] } },
{ "type": "Feature", "properties": { "fid": 162, "title_source": "『サニーダイナー柏の葉』北千住でこだわりのグルメバーガー", "link_source": "https://yuropom.com/kashiwanoha-sunny-diner/", "blog_source": "ゆろぽんのおいしいごはん。", "name_poi": "サニーダイナー", "flag_poi": "ハンバーガー", "url_link": "https://www.sunnydiner.com/", "url_flag": "1" }, "geometry": { "type": "Point", "coordinates": [ 139.9537871, 35.8986332 ] } },
{ "type": "Feature", "properties": { "fid": 163, "title_source": "【サフラン】はパンだけでなく”ケーキ”も美味しい", "link_source": "https://nagalulu.com/s_otakanomori/", "blog_source": "ながるる", "name_poi": "サフラン", "flag_poi": "パン　カフェ　ケーキ", "url_link": "https://saffron-pan.jp/s_otakanomori.html", "url_flag": "1" }, "geometry": { "type": "Point", "coordinates": [ 139.9321765, 35.8742471 ] } },
{ "type": "Feature", "properties": { "fid": 164, "title_source": "300種類のパンがある！選ぶのが楽しいサフラン柏の葉店", "link_source": "https://kurowata.com/safran/", "blog_source": "柏たなかマニア", "name_poi": "サフラン", "flag_poi": "パン　カフェ　ケーキ", "url_link": "https://saffron-pan.jp/s_kashiwanoha.html", "url_flag": "1" }, "geometry": { "type": "Point", "coordinates": [ 139.9258379, 35.8986882 ] } },
{ "type": "Feature", "properties": { "fid": 165, "title_source": "ケーキもドッグランも！【サフランズカフェ】居心地の良いインスタ映え抜群のカフェ！メニューや口コミは？ | もりのは（モリノハ）", "link_source": "https://morino8.jp/gourmet/saffrons-cafe/", "blog_source": "モリノハ", "name_poi": "サフランズカフェ", "flag_poi": "カフェ　パン", "url_link": "https://saffron-pan.jp/s_cafe.html", "url_flag": "1" }, "geometry": { "type": "Point", "coordinates": [ 139.928959, 35.899311 ] } },
{ "type": "Feature", "properties": { "fid": 166, "title_source": "『サフランズカフェ（SAFFRON'S CAFE）流山』具だくさんコッペパンで遅めのランチ", "link_source": "https://yuropom.com/nagareyama-saffrons-cafe/", "blog_source": "ゆろぽんのおいしいごはん。", "name_poi": "サフランズカフェ", "flag_poi": "カフェ　パン", "url_link": "https://saffron-pan.jp/s_cafe.html", "url_flag": "1" }, "geometry": { "type": "Point", "coordinates": [ 139.928959, 35.899311 ] } },
{ "type": "Feature", "properties": { "fid": 167, "title_source": "トラットリア ピッツェリア サレルノ流山店で秋の味覚ランチを堪能♪（おおたかの森SC） | 流山SANPO-BLOG", "link_source": "https://nagareyama-sanpo.net/2020/09/21-33/", "blog_source": "流山SANPO", "name_poi": "サレルノ", "flag_poi": "イタリアン", "url_link": "-", "url_flag": "0" }, "geometry": { "type": "Point", "coordinates": [ 139.9256952, 35.8707517 ] } },
{ "type": "Feature", "properties": { "fid": 168, "title_source": "流山おおたかの森駅徒歩4分のイタリアン トラットリア ピッツェリア サレルノにてボリュームたっぷりのピッツァ マルゲリータを前菜・ドルチェ付きのランチセットBでいただく", "link_source": "https://tokatsulunch.com/7885/", "blog_source": "東葛ランチ天国", "name_poi": "サレルノ", "flag_poi": "イタリアン", "url_link": "-", "url_flag": "0" }, "geometry": { "type": "Point", "coordinates": [ 139.9256952, 35.8707517 ] } },
{ "type": "Feature", "properties": { "fid": 169, "title_source": "【サンジェルマン】サブスクパスポートで毎日お得にパンを楽しめる！使い方や対象店舗は？（流山おおたかの森SC・我孫子店など） | もりのは（モリノハ）", "link_source": "https://morino8.jp/gourmet/saint-germain/", "blog_source": "モリノハ", "name_poi": "サンジェルマン", "flag_poi": "パン", "url_link": "https://www.saint-germain.co.jp/brand/", "url_flag": "1" }, "geometry": { "type": "Point", "coordinates": [ 139.925838, 35.87012 ] } },
{ "type": "Feature", "properties": { "fid": 170, "title_source": "NO密★サンドウィッチカフェ ペジーブル＠柏市教育福祉会館 | リビングかしわWeb", "link_source": "https://mrs.living.jp/kashiwa/town_gourmet/reporter/3911327", "blog_source": "リビングかしわ", "name_poi": "サンドウィッチカフェ ペジーブル", "flag_poi": "パン　カフェ", "url_link": "https://paisible-wanahome.com/store/paisible-kashiwa/", "url_flag": "1" }, "geometry": { "type": "Point", "coordinates": [ 139.9766438, 35.8668852 ] } },
{ "type": "Feature", "properties": { "fid": 171, "title_source": "食べ放題【しゃぶ葉】流山おおたかの森・柏市に3店舗！人気しゃぶしゃぶブッフェ♪（メニューやクーポンなど） | もりのは（モリノハ）", "link_source": "https://morino8.jp/gourmet/syabuyo/", "blog_source": "モリノハ", "name_poi": "しゃぶ葉", "flag_poi": "", "url_link": "https://store-info.skylark.co.jp/syabuyo/map/198387", "url_flag": "1" }, "geometry": { "type": "Point", "coordinates": [ 139.925443, 35.876056 ] } },
{ "type": "Feature", "properties": { "fid": 172, "title_source": "【しゃぶ葉】流山おおたかの森店で大満足のランチ – ながるる", "link_source": "https://nagalulu.com/syabuyo/", "blog_source": "ながるる", "name_poi": "しゃぶ葉", "flag_poi": "", "url_link": "https://store-info.skylark.co.jp/syabuyo/map/198387", "url_flag": "1" }, "geometry": { "type": "Point", "coordinates": [ 139.925443, 35.876056 ] } },
{ "type": "Feature", "properties": { "fid": 173, "title_source": "【アレグリア柏 ALEGRIA Kashiwa】シュラスコ食べ放題はランチがお得！子連れでも行きやすい絶品肉料理のお店♪ | もりのは（モリノハ）", "link_source": "https://morino8.jp/gourmet/alegria-kashiwa/", "blog_source": "モリノハ", "name_poi": "シュラスコレストランALEGRIA柏", "flag_poi": "肉　レストラン", "url_link": "https://www.instagram.com/alegria_kashiwa/?hl=ja", "url_flag": "2" }, "geometry": { "type": "Point", "coordinates": [ 139.974725, 35.860463 ] } },
{ "type": "Feature", "properties": { "fid": 174, "title_source": "愛犬と行けるドッグカフェ【しろいぬカフェ】柏の葉T-SITEと松戸市のお店の違いをまとめたよ！ | もりのは（モリノハ）", "link_source": "https://morino8.jp/gourmet/shiroinu-cafe/", "blog_source": "モリノハ", "name_poi": "しろいぬカフェ", "flag_poi": "犬　カフェ", "url_link": "https://www.instagram.com/shiroinu_tsite/", "url_flag": "2" }, "geometry": { "type": "Point", "coordinates": [ 139.953475, 35.898798 ] } },
{ "type": "Feature", "properties": { "fid": 175, "title_source": "Shiroinu Cafe（しろいぬカフェ）柏の葉T-SITE店に行ってきました♪ | 流山SANPO-BLOG", "link_source": "https://nagareyama-sanpo.net/2020/10/31-32/", "blog_source": "流山SANPO", "name_poi": "しろいぬカフェ", "flag_poi": "犬　カフェ", "url_link": "https://www.instagram.com/shiroinu_tsite/", "url_flag": "2" }, "geometry": { "type": "Point", "coordinates": [ 139.953475, 35.898798 ] } },
{ "type": "Feature", "properties": { "fid": 176, "title_source": "【柏市】愛犬とくつろげる空間「しろいぬカフェ柏の葉T-SITE店」のおすすめサンド3選 - mook | Yahoo! JAPAN クリエイターズプログラム", "link_source": "https://creators.yahoo.co.jp/mook/0100186656", "blog_source": "Mook(Yahoo Creators)", "name_poi": "しろいぬカフェ", "flag_poi": "犬　カフェ", "url_link": "https://www.instagram.com/shiroinu_tsite/", "url_flag": "2" }, "geometry": { "type": "Point", "coordinates": [ 139.953475, 35.898798 ] } },
{ "type": "Feature", "properties": { "fid": 177, "title_source": "【ジロー珈琲】モーニングやテイクアウトも充実カフェ♪おすすめメニューは？（豊四季・流山おおたかの森） | もりのは（モリノハ）", "link_source": "https://morino8.jp/gourmet/giraud-coffee/", "blog_source": "モリノハ", "name_poi": "ジロー珈琲", "flag_poi": "カフェ　コーヒー", "url_link": "https://www.giraud.co.jp/giraud-coffee/", "url_flag": "1" }, "geometry": { "type": "Point", "coordinates": [ 139.944819, 35.863725 ] } },
{ "type": "Feature", "properties": { "fid": 178, "title_source": "自家焙煎「ジロー珈琲」豊四季店でドリンク休憩！のはずがハワイアンパンケーキも | リビングかしわWeb", "link_source": "https://mrs.living.jp/kashiwa/town_gourmet/reporter/3468745", "blog_source": "リビングかしわ", "name_poi": "ジロー珈琲", "flag_poi": "カフェ　コーヒー", "url_link": "https://www.giraud.co.jp/giraud-coffee/", "url_flag": "1" }, "geometry": { "type": "Point", "coordinates": [ 139.944819, 35.863725 ] } },
{ "type": "Feature", "properties": { "fid": 179, "title_source": "柏たなかで話題のキッチンカー！モッチモチが美味なクレープ【しろのはち。】", "link_source": "https://kurowata.com/shironohachi/", "blog_source": "柏たなかマニア", "name_poi": "しろのはち。", "flag_poi": "クレープ　キッチンカー", "url_link": "https://www.shironohachi.jp/", "url_flag": "1" }, "geometry": { "type": "Point", "coordinates": [ 139.9562779, 35.9075352 ] } },
{ "type": "Feature", "properties": { "fid": 180, "title_source": "ゴールデンウィークは、体験型ミュージアム「スーパードライ ミュージアム」へ行こう【茨城県守谷市】 | リビングかしわWeb", "link_source": "https://mrs.living.jp/kashiwa/page/topics/5092470", "blog_source": "リビングかしわ", "name_poi": "スーパードライ ミュージアム", "flag_poi": "レジャー", "url_link": "https://www.asahibeer.co.jp/brewery/ibaraki/", "url_flag": "1" }, "geometry": { "type": "Point", "coordinates": [ 139.9673022, 35.9509478 ] } },
{ "type": "Feature", "properties": { "fid": 181, "title_source": "柏たなか最大の公園！セナリオハウスパーク", "link_source": "https://kurowata.com/senariohouse-park/", "blog_source": "柏たなかマニア", "name_poi": "セナリオハウスパーク", "flag_poi": "公園", "url_link": "https://www.instagram.com/kashiwa_tanaka_event/", "url_flag": "2" }, "geometry": { "type": "Point", "coordinates": [ 139.958441599999986, 35.9093365 ] } },
{ "type": "Feature", "properties": { "fid": 182, "title_source": "柏たなか駅東口にある公園「セナリオハウスパーク 柏たなか」をチラッと写真で紹介", "link_source": "https://kashiwanoha-cycle-life.blog.jp/archives/51847386.html", "blog_source": "柏の葉サイクルライフ", "name_poi": "セナリオハウスパーク", "flag_poi": "公園", "url_link": "https://www.instagram.com/kashiwa_tanaka_event/", "url_flag": "2" }, "geometry": { "type": "Point", "coordinates": [ 139.958441599999986, 35.9093365 ] } },
{ "type": "Feature", "properties": { "fid": 183, "title_source": "注目のテナント店まとめ【セブンパーク アリオ柏】ここにしかないお店も？ショッピング・アミューズメント・グルメまで楽しめるショッピングモール♪ | もりのは（モリノハ）", "link_source": "https://morino8.jp/shop/sevenpark-kashiwa/", "blog_source": "モリノハ", "name_poi": "セブンパーク アリオ柏", "flag_poi": "ショッピングモール", "url_link": "https://sevenpark-kashiwa.ario.jp/", "url_flag": "1" }, "geometry": { "type": "Point", "coordinates": [ 140.012913, 35.833449 ] } },
{ "type": "Feature", "properties": { "fid": 184, "title_source": "地元で人気のおそば屋さん【そば処 砂場】ボリューム満点の天ぷらセットもおすすめ！（流山市駒木） | もりのは（モリノハ）", "link_source": "https://morino8.jp/gourmet/sunaba/", "blog_source": "モリノハ", "name_poi": "そば処 砂場", "flag_poi": "蕎麦", "url_link": "-", "url_flag": "0" }, "geometry": { "type": "Point", "coordinates": [ 139.937183, 35.87888 ] } },
{ "type": "Feature", "properties": { "fid": 185, "title_source": "人気のカレー屋さん☆インド・ネパール料理タァバン平和台店 | 流山SANPO-BLOG", "link_source": "https://nagareyama-sanpo.net/2020/11/16-32/", "blog_source": "流山SANPO", "name_poi": "タァバン", "flag_poi": "カレー", "url_link": "-", "url_flag": "0" }, "geometry": { "type": "Point", "coordinates": [ 139.901005, 35.851677 ] } },
{ "type": "Feature", "properties": { "fid": 186, "title_source": "お家でピリッと辛い本格カレー 「タァバン 平和台店」のテイクアウト。 - 40papa", "link_source": "https://40papa.com/gourmet/26227/", "blog_source": "40papa", "name_poi": "タァバン", "flag_poi": "カレー", "url_link": "-", "url_flag": "0" }, "geometry": { "type": "Point", "coordinates": [ 139.901005, 35.851677 ] } },
{ "type": "Feature", "properties": { "fid": 187, "title_source": "『タァバン 南増尾店（インド・ネパール料理 タァバン）』選べるカレーとナンをおかわり♪", "link_source": "https://yuropom.com/masuo-taaban-2/", "blog_source": "ゆろぽんのおいしいごはん。", "name_poi": "タァバン", "flag_poi": "カレー", "url_link": "-", "url_flag": "0" }, "geometry": { "type": "Point", "coordinates": [ 139.9690793, 35.8165953 ] } },
{ "type": "Feature", "properties": { "fid": 188, "title_source": "【柏】タイ国公認！バンラックでタイ料理を楽しもう｜まちっと柏", "link_source": "https://machitto.jp/kashiwa/11025/", "blog_source": "まちっと柏", "name_poi": "タイ料理 バンラック", "flag_poi": "レストラン", "url_link": "https://baanluck.jp/kashiwa/", "url_flag": "1" }, "geometry": { "type": "Point", "coordinates": [ 139.973334599999987, 35.8569172 ] } },
{ "type": "Feature", "properties": { "fid": 189, "title_source": "柏で本格的なタイ料理を食べたいのなら「バンラック」 | リビングかしわWeb", "link_source": "https://mrs.living.jp/kashiwa/town_gourmet/reporter/4408445", "blog_source": "リビングかしわ", "name_poi": "タイ料理 バンラック", "flag_poi": "レストラン", "url_link": "https://baanluck.jp/kashiwa/", "url_flag": "1" }, "geometry": { "type": "Point", "coordinates": [ 139.973334599999987, 35.8569172 ] } },
{ "type": "Feature", "properties": { "fid": 190, "title_source": "柏駅徒歩10分 タイ料理 バンラック柏店がオープンしたので、一番人気のトムヤムクンラーメンのランチセットをおいしくいただく！", "link_source": "https://tokatsulunch.com/16504/", "blog_source": "東葛ランチ天国", "name_poi": "タイ料理 バンラック", "flag_poi": "レストラン", "url_link": "https://baanluck.jp/kashiwa/", "url_flag": "1" }, "geometry": { "type": "Point", "coordinates": [ 139.973334599999987, 35.8569172 ] } },
{ "type": "Feature", "properties": { "fid": 191, "title_source": "『バンラック 柏店』\"カオソーイ\"美味しくて楽しい！タイ北部カレーラーメン", "link_source": "https://yuropom.com/baanluck-kashiwa/", "blog_source": "ゆろぽんのおいしいごはん。", "name_poi": "タイ料理 バンラック", "flag_poi": "レストラン", "url_link": "https://baanluck.jp/kashiwa/", "url_flag": "1" }, "geometry": { "type": "Point", "coordinates": [ 139.973334599999987, 35.8569172 ] } },
{ "type": "Feature", "properties": { "fid": 192, "title_source": "柏の葉キャンパス駅にタリーズコーヒーが３つ！【違いを比較してみた】TULLY’S COFFEEの三井リハウス新業態KASHIWANOHA LIVING＆CAFE(リビングカフェ)とは？ | もりのは（モリノハ）", "link_source": "https://morino8.jp/gourmet/tullys-kashiwanoha/", "blog_source": "モリノハ", "name_poi": "タリーズコーヒー", "flag_poi": "コーヒー　カフェ", "url_link": "-", "url_flag": "0" }, "geometry": { "type": "Point", "coordinates": [ 139.952686, 35.894264 ] } },
{ "type": "Feature", "properties": { "fid": 193, "title_source": "輸入雑貨好きは行ってみて！【DULTON DAY STACK ダルトン デイスタック 柏の葉店】はおしゃれな雑貨が揃う！ | もりのは（モリノハ）", "link_source": "https://morino8.jp/lifegoods/dulton-daystack/", "blog_source": "モリノハ", "name_poi": "ダルトンデイスタック", "flag_poi": "雑貨屋", "url_link": "https://www.dulton.jp/stores/daystack", "url_flag": "1" }, "geometry": { "type": "Point", "coordinates": [ 139.964619, 35.895033 ] } },
{ "type": "Feature", "properties": { "fid": 194, "title_source": "【柏市】「DULTON DAY STACK（ダルトンデイストック）柏の葉店」のおすすめアイテム - mook | Yahoo! JAPAN クリエイターズプログラム", "link_source": "https://creators.yahoo.co.jp/mook/0100176905", "blog_source": "Mook(Yahoo Creators)", "name_poi": "ダルトンデイスタック", "flag_poi": "雑貨屋", "url_link": "https://www.dulton.jp/stores/daystack", "url_flag": "1" }, "geometry": { "type": "Point", "coordinates": [ 139.964619, 35.895033 ] } },
{ "type": "Feature", "properties": { "fid": 195, "title_source": "柏の葉に8月10日オープン【つけ麺 ささ木】新コンセプトのラーメン屋が初出店（ららぽーと柏の葉フードコート内） | もりのは（モリノハ）", "link_source": "https://morino8.jp/gourmet/tsukemen-sasaki/", "blog_source": "モリノハ", "name_poi": "つけ麺 ささ木", "flag_poi": "ラーメン　らーめん", "url_link": "-", "url_flag": "0" }, "geometry": { "type": "Point", "coordinates": [ 139.950856, 35.89383 ] } },
{ "type": "Feature", "properties": { "fid": 196, "title_source": "ららぽーと柏の葉フードコートにつけ麺専門店、つけ麺ささ木がオープン | リビングかしわWeb", "link_source": "https://mrs.living.jp/kashiwa/town_gourmet/reporter/4830791", "blog_source": "リビングかしわ", "name_poi": "つけ麺 ささ木", "flag_poi": "ラーメン　らーめん", "url_link": "-", "url_flag": "0" }, "geometry": { "type": "Point", "coordinates": [ 139.950856, 35.89383 ] } },
{ "type": "Feature", "properties": { "fid": 197, "title_source": "柏の葉キャンパス駅徒歩3分 ららぽーと柏の葉フードコートのつけ麺ささ木を初訪問！ 全部のせの、全粒粉極濃つけ麺 スペシャルをいただく！", "link_source": "https://tokatsulunch.com/23454/", "blog_source": "東葛ランチ天国", "name_poi": "つけ麺 ささ木", "flag_poi": "ラーメン　らーめん", "url_link": "-", "url_flag": "0" }, "geometry": { "type": "Point", "coordinates": [ 139.950856, 35.89383 ] } },
{ "type": "Feature", "properties": { "fid": 198, "title_source": "【柏市】つるつるもっちり麺×味変◎ららぽーと柏の葉にオープンした「つけ麺ささ木」の美味しい食べ方 - mook | Yahoo! JAPAN クリエイターズプログラム", "link_source": "https://creators.yahoo.co.jp/mook/0100303192", "blog_source": "Mook(Yahoo Creators)", "name_poi": "つけ麺 ささ木", "flag_poi": "ラーメン　らーめん", "url_link": "-", "url_flag": "0" }, "geometry": { "type": "Point", "coordinates": [ 139.950856, 35.89383 ] } },
{ "type": "Feature", "properties": { "fid": 199, "title_source": "全粒粉極濃の「つけ麺ささ木」と、とんこつラーメン「一風堂」（ららぽーと柏の葉） | 流山SANPO-BLOG", "link_source": "https://nagareyama-sanpo.net/2022/10/10-44/", "blog_source": "流山SANPO", "name_poi": "つけ麺 ささ木", "flag_poi": "ラーメン　らーめん", "url_link": "-", "url_flag": "0" }, "geometry": { "type": "Point", "coordinates": [ 139.950856, 35.89383 ] } },
{ "type": "Feature", "properties": { "fid": 200, "title_source": "初石で人気の”つけ麺 柏龍”リーズナブルで美味しいです", "link_source": "https://nagalulu.com/hakuryu/", "blog_source": "ながるる", "name_poi": "つけ麺 柏龍", "flag_poi": "ラーメン　らーめん", "url_link": "-", "url_flag": "0" }, "geometry": { "type": "Point", "coordinates": [ 139.9154768, 35.8841568 ] } },
{ "type": "Feature", "properties": { "fid": 201, "title_source": "子連れにも最適【柏の葉ドッグガーデン】座れるドッグラン！愛犬と一緒に楽しむ快適空間（柏の葉キャンパスT-site DOGFULドッグフル） | もりのは（モリノハ）", "link_source": "https://morino8.jp/odekake/dog-garden/", "blog_source": "モリノハ", "name_poi": "ドッグガーデン", "flag_poi": "犬", "url_link": "https://www.dog-ful.com/places/1192", "url_flag": "1" }, "geometry": { "type": "Point", "coordinates": [ 139.952628, 35.899379 ] } },
{ "type": "Feature", "properties": { "fid": 202, "title_source": "見晴らし抜群！住宅街の素敵なカフェ「トネリコカフェ」（柏たなか）", "link_source": "https://nagareyama-sanpo.net/2020/04/2-20/", "blog_source": "流山SANPO", "name_poi": "トネリコカフェ", "flag_poi": "カフェ", "url_link": "https://www.instagram.com/tonericocafe/", "url_flag": "2" }, "geometry": { "type": "Point", "coordinates": [ 139.957132699999988, 35.9185079 ] } },
{ "type": "Feature", "properties": { "fid": 203, "title_source": "【柏】100食限定「美とん」でいただく「脂味」もうまい極上とんかつ｜まちっと柏", "link_source": "https://machitto.jp/kashiwa/17523/", "blog_source": "まちっと柏", "name_poi": "とんかつ美とん", "flag_poi": "和食", "url_link": "https://gh3g500.gorp.jp/", "url_flag": "1" }, "geometry": { "type": "Point", "coordinates": [ 139.9728222, 35.864133 ] } },
{ "type": "Feature", "properties": { "fid": 204, "title_source": "のだしこども館(2022年10月オープン)で子供がおおはしゃぎ – ながるる", "link_source": "https://nagalulu.com/noda-kodomokan/", "blog_source": "ながるる", "name_poi": "のだしこども館", "flag_poi": "教育　レジャー", "url_link": "https://www.comaam.jp/nodashikodomokan/", "url_flag": "1" }, "geometry": { "type": "Point", "coordinates": [ 139.85139190000001, 35.9569506 ] } },
{ "type": "Feature", "properties": { "fid": 205, "title_source": "ボリューム満点 大きさにご用心 「バーガーキング コトエ流山おおたかの森店」", "link_source": "https://40papa.com/gourmet/30804/", "blog_source": "40papa", "name_poi": "バーガーキング", "flag_poi": "ハンバーガー", "url_link": "-", "url_flag": "0" }, "geometry": { "type": "Point", "coordinates": [ 139.9208956, 35.8719881 ] } },
{ "type": "Feature", "properties": { "fid": 206, "title_source": "おおたかの森北口の科学するパティスリー「CONSTELLAS（ コンステラス）」でお祝いのホールケーキ♪ | 流山SANPO-BLOG", "link_source": "https://nagareyama-sanpo.net/2022/06/25-45/", "blog_source": "流山SANPO", "name_poi": "パティスリー コンステラス", "flag_poi": "ケーキ　スイーツ　洋菓子", "url_link": "https://constellas.net/", "url_flag": "1" }, "geometry": { "type": "Point", "coordinates": [ 139.926562100000012, 35.8734339 ] } },
{ "type": "Feature", "properties": { "fid": 207, "title_source": "【流山】スイーツを“科学”する「Patisserie CONSTELLAS」オーナーシェフにインタビュー｜まちっと柏", "link_source": "https://machitto.jp/kashiwa/39595/", "blog_source": "まちっと柏", "name_poi": "パティスリー コンステラス", "flag_poi": "ケーキ　スイーツ　洋菓子", "url_link": "https://constellas.net/", "url_flag": "1" }, "geometry": { "type": "Point", "coordinates": [ 139.926562100000012, 35.8734339 ] } },
{ "type": "Feature", "properties": { "fid": 208, "title_source": "流山おおたかの森にオープンのCONSTELLAS（コンステラス）は、お菓子の美味しさを科学するパティスリー | リビングかしわWeb", "link_source": "https://mrs.living.jp/kashiwa/town_gourmet/reporter/4549451", "blog_source": "リビングかしわ", "name_poi": "パティスリー コンステラス", "flag_poi": "ケーキ　スイーツ　洋菓子", "url_link": "https://constellas.net/", "url_flag": "1" }, "geometry": { "type": "Point", "coordinates": [ 139.926562100000012, 35.8734339 ] } },
{ "type": "Feature", "properties": { "fid": 209, "title_source": "フランス菓子のお店『patisserie feuille（パティスリー・フィユ）』＠柏の葉キャンパス", "link_source": "https://mrs.living.jp/kashiwa/town_gourmet/reporter/4876894", "blog_source": "リビングかしわ", "name_poi": "パティスリー・フィユ", "flag_poi": "ケーキ　スイーツ　洋菓子", "url_link": "https://patisserie-feuille.jp/", "url_flag": "1" }, "geometry": { "type": "Point", "coordinates": [ 139.9533813, 35.8959054 ] } },
{ "type": "Feature", "properties": { "fid": 210, "title_source": "柏の葉キャンパス駅徒歩5分 パティスリーフイユ（patisserie feuille）を初訪問！ケーキ3種と焼き菓子セットを堪能する！ 小さいが実力あるお店！", "link_source": "https://tokatsulunch.com/20241/", "blog_source": "東葛ランチ天国", "name_poi": "パティスリー・フィユ", "flag_poi": "ケーキ　スイーツ　洋菓子", "url_link": "https://patisserie-feuille.jp/", "url_flag": "1" }, "geometry": { "type": "Point", "coordinates": [ 139.9533813, 35.8959054 ] } },
{ "type": "Feature", "properties": { "fid": 211, "title_source": "柏の葉キャンパスの洋菓子屋♪【#パティスリーフイユ patisserie_feuille】ケーキ・焼き菓子(コイルリンクガレージ KOIL LINK GARAGE 2022年2月12日オープン ) | もりのは（モリノハ）", "link_source": "https://morino8.jp/gourmet/patisserie_feuille/", "blog_source": "モリノハ", "name_poi": "パティスリー・フィユ", "flag_poi": "ケーキ　スイーツ　洋菓子", "url_link": "https://patisserie-feuille.jp/", "url_flag": "1" }, "geometry": { "type": "Point", "coordinates": [ 139.9533813, 35.8959054 ] } },
{ "type": "Feature", "properties": { "fid": 212, "title_source": "【柏市】早くもSNSで話題「patisserie feuille(パティスリー フイユ)」をレポ！ - mook | Yahoo! JAPAN クリエイターズプログラム", "link_source": "https://creators.yahoo.co.jp/mook/0100198846", "blog_source": "Mook(Yahoo Creators)", "name_poi": "パティスリー・フィユ", "flag_poi": "ケーキ　スイーツ　洋菓子", "url_link": "https://patisserie-feuille.jp/", "url_flag": "1" }, "geometry": { "type": "Point", "coordinates": [ 139.9533813, 35.8959054 ] } },
{ "type": "Feature", "properties": { "fid": 213, "title_source": "初日レビュー！【バンサン VANSAN COTOEコトエ流山おおたかの森店】メディアで話題の本格イタリアンチェーン（2022年10月31日オープン） | もりのは（モリノハ）", "link_source": "https://morino8.jp/gourmet/vansan-ltd/", "blog_source": "モリノハ", "name_poi": "バンサン", "flag_poi": "イタリアン", "url_link": "https://vansan-ltd.jp/vansan/cotoe-nagareyama-otakanomori/", "url_flag": "1" }, "geometry": { "type": "Point", "coordinates": [ 139.921227, 35.872523 ] } },
{ "type": "Feature", "properties": { "fid": 214, "title_source": "流山おおたかの森駅徒歩6分 イタリアンキッチン バンサン（Italian Kitchen VANSAN）COTOE流山おおたかの森店を初訪問！ マルゲリータ＆クワトロフォルマッジのピッツァをいただく！", "link_source": "https://tokatsulunch.com/24632/", "blog_source": "東葛ランチ天国", "name_poi": "バンサン", "flag_poi": "イタリアン", "url_link": "https://vansan-ltd.jp/vansan/cotoe-nagareyama-otakanomori/", "url_flag": "1" }, "geometry": { "type": "Point", "coordinates": [ 139.921227, 35.872523 ] } },
{ "type": "Feature", "properties": { "fid": 215, "title_source": "女子ウケ抜群マカロン！【Bianca ビアンカ】SNS映え間違いなしのスイーツカフェ♪ランチもできるかわいいお店 | もりのは（モリノハ）", "link_source": "https://morino8.jp/gourmet/bianca/", "blog_source": "モリノハ", "name_poi": "ビアンカ", "flag_poi": "マカロン　カフェ　スイーツ", "url_link": "https://bianca-kashiwanoha.business.site/", "url_flag": "1" }, "geometry": { "type": "Point", "coordinates": [ 139.94622, 35.891414 ] } },
{ "type": "Feature", "properties": { "fid": 216, "title_source": "マカロン・マフィンが美味しい！かわいいカフェ「Bianca(ビアンカ)」オープン♪ | 流山SANPO-BLOG", "link_source": "https://nagareyama-sanpo.net/2020/12/3-31/", "blog_source": "流山SANPO", "name_poi": "ビアンカ", "flag_poi": "マカロン　カフェ　スイーツ", "url_link": "https://bianca-kashiwanoha.business.site/", "url_flag": "1" }, "geometry": { "type": "Point", "coordinates": [ 139.94622, 35.891414 ] } },
{ "type": "Feature", "properties": { "fid": 217, "title_source": "【柏の葉】ビアンカ カフェがリニューアル！マカロン付きランチプレートが登場☆ | リビングかしわWeb", "link_source": "https://mrs.living.jp/kashiwa/town_gourmet/reporter/4189367", "blog_source": "リビングかしわ", "name_poi": "ビアンカ", "flag_poi": "マカロン　カフェ　スイーツ", "url_link": "https://bianca-kashiwanoha.business.site/", "url_flag": "1" }, "geometry": { "type": "Point", "coordinates": [ 139.94622, 35.891414 ] } },
{ "type": "Feature", "properties": { "fid": 218, "title_source": "【柏】かわいいがたくさん詰まったカフェBianca(ビアンカ)｜まちっと柏", "link_source": "https://machitto.jp/kashiwa/8088/", "blog_source": "まちっと柏", "name_poi": "ビアンカ", "flag_poi": "マカロン　カフェ　スイーツ", "url_link": "https://bianca-kashiwanoha.business.site/", "url_flag": "1" }, "geometry": { "type": "Point", "coordinates": [ 139.94622, 35.891414 ] } },
{ "type": "Feature", "properties": { "fid": 219, "title_source": "房の駅の新業態【ピーナツファクトリー PEANUTS FACTORY】千葉県産ピーナッツフロランタンやピーナツバターなど特産品(コイル16イチロクゲート) | もりのは（モリノハ）", "link_source": "https://morino8.jp/gourmet/peanuts/", "blog_source": "モリノハ", "name_poi": "ピーナツファクトリー", "flag_poi": "", "url_link": "https://fusanoeki.fusa.co.jp/peanuts/", "url_flag": "1" }, "geometry": { "type": "Point", "coordinates": [ 139.951403, 35.901753 ] } },
{ "type": "Feature", "properties": { "fid": 220, "title_source": "柏の葉 国道16号沿い ピーナッツファクトリーを初訪問！ ピーナッツクイーンパフェをいただき、千葉県産ピーナッツのお菓子を購入！", "link_source": "https://tokatsulunch.com/20564/", "blog_source": "東葛ランチ天国", "name_poi": "ピーナツファクトリー", "flag_poi": "", "url_link": "https://fusanoeki.fusa.co.jp/peanuts/", "url_flag": "1" }, "geometry": { "type": "Point", "coordinates": [ 139.951403, 35.901753 ] } },
{ "type": "Feature", "properties": { "fid": 221, "title_source": "本格フレンチをカジュアルに☆大人気ビストロ「ガヴロッシュ」（柏市明原） | 流山SANPO-BLOG", "link_source": "https://nagareyama-sanpo.net/2023/04/19-56/", "blog_source": "流山SANPO", "name_poi": "ビストロ GAVROCHE", "flag_poi": "フレンチ　レストラン", "url_link": "https://www.instagram.com/bistrogavroche/?hl=ja", "url_flag": "2" }, "geometry": { "type": "Point", "coordinates": [ 139.9653686, 35.8654894 ] } },
{ "type": "Feature", "properties": { "fid": 222, "title_source": "柏の人気店！ボリューム満点の本格フレンチ「ビストロ ガヴロッシュ」＠柏市明原 | リビングかしわWeb", "link_source": "https://mrs.living.jp/kashiwa/town_gourmet/reporter/3174319", "blog_source": "リビングかしわ", "name_poi": "ビストロ GAVROCHE", "flag_poi": "フレンチ　レストラン", "url_link": "https://www.instagram.com/bistrogavroche/?hl=ja", "url_flag": "2" }, "geometry": { "type": "Point", "coordinates": [ 139.9653686, 35.8654894 ] } },
{ "type": "Feature", "properties": { "fid": 223, "title_source": "『ビストロ ガヴロッシュ（BISTRO GAVROCHE）柏』たっぷりサーモンとほろ苦プリン", "link_source": "https://yuropom.com/kashiwa-bistro-gavroche/", "blog_source": "ゆろぽんのおいしいごはん。", "name_poi": "ビストロ GAVROCHE", "flag_poi": "フレンチ　レストラン", "url_link": "https://www.instagram.com/bistrogavroche/?hl=ja", "url_flag": "2" }, "geometry": { "type": "Point", "coordinates": [ 139.9653686, 35.8654894 ] } },
{ "type": "Feature", "properties": { "fid": 224, "title_source": "関東初上陸！【ピッツェリア マリノ 柏高島屋店】東海で大人気のフルーツビュッフェが楽しめるイタリアンレストラン | もりのは（モリノハ）", "link_source": "https://morino8.jp/gourmet/marino/", "blog_source": "モリノハ", "name_poi": "ピッツェリアマリノ", "flag_poi": "イタリアン", "url_link": "https://www.marino-net.co.jp/", "url_flag": "1" }, "geometry": { "type": "Point", "coordinates": [ 139.969667, 35.862106 ] } },
{ "type": "Feature", "properties": { "fid": 225, "title_source": "柏の葉で人気の「ひまつぶしカフェ」で夢のようなアフタヌーンティーはいかが？ | リビングかしわWeb", "link_source": "https://mrs.living.jp/kashiwa/town_gourmet/reporter/5013812", "blog_source": "リビングかしわ", "name_poi": "ひまつぶしカフェ", "flag_poi": "カフェ　アフタヌーンティー", "url_link": "https://www.instagram.com/himatsubushi.flower/", "url_flag": "2" }, "geometry": { "type": "Point", "coordinates": [ 139.9593381, 35.8867051 ] } },
{ "type": "Feature", "properties": { "fid": 226, "title_source": "柏の葉キャンパスカフェ「ひまつぶし」さんに行ってきました", "link_source": "https://ameblo.jp/mame634/entry-12770878275.html", "blog_source": "柏の葉ママブログ", "name_poi": "ひまつぶしカフェ", "flag_poi": "カフェ　アフタヌーンティー", "url_link": "https://www.instagram.com/himatsubushi.flower/", "url_flag": "2" }, "geometry": { "type": "Point", "coordinates": [ 139.9593381, 35.8867051 ] } },
{ "type": "Feature", "properties": { "fid": 227, "title_source": "【ふくろうや】流山おおたかの森で人気！流山名物「ふくろう(福喰朗)焼き」♪かわいくて美味しいこのお店の場所は？ | もりのは（モリノハ）", "link_source": "https://morino8.jp/gourmet/fukurouya/", "blog_source": "モリノハ", "name_poi": "ふくろうや", "flag_poi": "たい焼き", "url_link": "https://www.instagram.com/fukurouya_ootakanomori/", "url_flag": "2" }, "geometry": { "type": "Point", "coordinates": [ 139.918247, 35.874831 ] } },
{ "type": "Feature", "properties": { "fid": 228, "title_source": "流山おおたかの森「ふくろうや」の「福喰朗（ふくろう）焼き」はおいしくて、かわいい | リビングかしわWeb", "link_source": "https://mrs.living.jp/kashiwa/shopping/reporter/4579303", "blog_source": "リビングかしわ", "name_poi": "ふくろうや", "flag_poi": "たい焼き", "url_link": "https://www.instagram.com/fukurouya_ootakanomori/", "url_flag": "2" }, "geometry": { "type": "Point", "coordinates": [ 139.918247, 35.874831 ] } },
{ "type": "Feature", "properties": { "fid": 229, "title_source": "【流山】たいやきじゃなくてふくろう焼き？！「ふくろうや おおたかの森」｜まちっと柏", "link_source": "https://machitto.jp/kashiwa/59606/", "blog_source": "まちっと柏", "name_poi": "ふくろうや", "flag_poi": "たい焼き", "url_link": "https://www.instagram.com/fukurouya_ootakanomori/", "url_flag": "2" }, "geometry": { "type": "Point", "coordinates": [ 139.918247, 35.874831 ] } },
{ "type": "Feature", "properties": { "fid": 230, "title_source": "日本屈指の大人気公園【ふなばしアンデルセン公園】ファミリーで楽しめる千葉県船橋市テーマパーク！ | もりのは（モリノハ）", "link_source": "https://morino8.jp/odekake/park-funabashi/", "blog_source": "モリノハ", "name_poi": "ふなばしアンデルセン公園", "flag_poi": "", "url_link": "https://www.park-funabashi.or.jp/and/", "url_flag": "1" }, "geometry": { "type": "Point", "coordinates": [ 140.061497, 35.759905 ] } },
{ "type": "Feature", "properties": { "fid": 231, "title_source": "流山市指定文化財となった「ブラッスリーしんかわ」で、移転前にフレンチ料理を堪能 | リビングかしわWeb", "link_source": "https://mrs.living.jp/kashiwa/town_gourmet/reporter/4614443", "blog_source": "リビングかしわ", "name_poi": "ブラッスリーしんかわ", "flag_poi": "フレンチ　レストラン", "url_link": "https://www.instagram.com/shinkawa7633/", "url_flag": "2" }, "geometry": { "type": "Point", "coordinates": [ 139.90226, 35.9146767 ] } },
{ "type": "Feature", "properties": { "fid": 232, "title_source": "【流山】大正ロマンの雰囲気で味わう本格フレンチ「Brasserieしんかわ」｜まちっと柏", "link_source": "https://machitto.jp/kashiwa/11096/", "blog_source": "まちっと柏", "name_poi": "ブラッスリーしんかわ", "flag_poi": "フレンチ　レストラン", "url_link": "https://www.instagram.com/shinkawa7633/", "url_flag": "2" }, "geometry": { "type": "Point", "coordinates": [ 139.90226, 35.9146767 ] } },
{ "type": "Feature", "properties": { "fid": 233, "title_source": "本格ハワイアン料理【リゾートダイニング フランジパニ】はランチ/ディナー/テイクアウトメニュー/お酒も充実！（流山おおたかの森駅前すぐ） | もりのは（モリノハ）", "link_source": "https://morino8.jp/gourmet/frangipani/", "blog_source": "モリノハ", "name_poi": "フランジパニ", "flag_poi": "ハワイアン　レストラン", "url_link": "https://www.instagram.com/frangipani0707/", "url_flag": "2" }, "geometry": { "type": "Point", "coordinates": [ 139.925485, 35.873286 ] } },
{ "type": "Feature", "properties": { "fid": 234, "title_source": "守谷駅近くに新しいタイプの複合商業施設「ブランチ守谷」オープン！ | リビングかしわWeb", "link_source": "https://mrs.living.jp/kashiwa/newopen/reporter/4620669", "blog_source": "リビングかしわ", "name_poi": "ブランチ守谷", "flag_poi": "ショッピングモール", "url_link": "https://www.branch-sc.com/moriya/", "url_flag": "1" }, "geometry": { "type": "Point", "coordinates": [ 139.9936013, 35.9529187 ] } },
{ "type": "Feature", "properties": { "fid": 235, "title_source": "テナント店舗が決定！【ブランチ守谷 BRANCH】守谷駅前東口のショッピングモールはどんなお店？（2022年4月28日 大和リース） | もりのは（モリノハ）", "link_source": "https://morino8.jp/shop/moriya-sc/", "blog_source": "モリノハ", "name_poi": "ブランチ守谷", "flag_poi": "ショッピングモール", "url_link": "https://www.branch-sc.com/moriya/", "url_flag": "1" }, "geometry": { "type": "Point", "coordinates": [ 139.9936013, 35.9529187 ] } },
{ "type": "Feature", "properties": { "fid": 236, "title_source": "南流山駅からすぐ♪【フルーツカフェ オレンジ】フルーツサンド･パフェ･ケーキ・ランチまで楽しめる人気店 | もりのは（モリノハ）", "link_source": "https://morino8.jp/gourmet/orangecafe/", "blog_source": "モリノハ", "name_poi": "フルーツカフェ オレンジ", "flag_poi": "ケーキ　スイーツ", "url_link": "https://www.instagram.com/fruit_cafe_orange/", "url_flag": "2" }, "geometry": { "type": "Point", "coordinates": [ 139.903592, 35.837676 ] } },
{ "type": "Feature", "properties": { "fid": 237, "title_source": "【南流山】フルーツカフェオレンジでとびきりの幸せタイムを！ | リビングかしわWeb", "link_source": "https://mrs.living.jp/kashiwa/town_gourmet/reporter/4728481", "blog_source": "リビングかしわ", "name_poi": "フルーツカフェ オレンジ", "flag_poi": "ケーキ　スイーツ", "url_link": "https://www.instagram.com/fruit_cafe_orange/", "url_flag": "2" }, "geometry": { "type": "Point", "coordinates": [ 139.903592, 35.837676 ] } },
{ "type": "Feature", "properties": { "fid": 238, "title_source": "『ベーカリー＆カフェ ペニー レイン柏の葉店（PENNY LANE）』那須で人気のパン屋さん", "link_source": "https://yuropom.com/kashiwanoha-penny-lane/", "blog_source": "ゆろぽんのおいしいごはん。", "name_poi": "ペニーレイン", "flag_poi": "パン", "url_link": "https://pennylane.company/kashiwanoha", "url_flag": "1" }, "geometry": { "type": "Point", "coordinates": [ 139.953598199999988, 35.8985865 ] } },
{ "type": "Feature", "properties": { "fid": 239, "title_source": "★メニューと店内レビュー★【ペニーレイン柏の葉キャンパス】オープン後の気になる口コミは？那須・つくばの大人気パン(PENNY LANE KASHIWANOHA T-SITE) | もりのは（モリノハ）", "link_source": "https://morino8.jp/gourmet/pennylane/", "blog_source": "モリノハ", "name_poi": "ペニーレイン", "flag_poi": "パン", "url_link": "https://pennylane.company/kashiwanoha", "url_flag": "1" }, "geometry": { "type": "Point", "coordinates": [ 139.953598199999988, 35.8985865 ] } },
{ "type": "Feature", "properties": { "fid": 240, "title_source": "PENNY LANE(ペニーレイン)で一番人気の”ブルーベリーブレッド” – ながるる", "link_source": "https://nagalulu.com/penny-lane-kashiwanoha/", "blog_source": "ながるる", "name_poi": "ペニーレイン", "flag_poi": "パン", "url_link": "https://pennylane.company/kashiwanoha", "url_flag": "1" }, "geometry": { "type": "Point", "coordinates": [ 139.953598199999988, 35.8985865 ] } },
{ "type": "Feature", "properties": { "fid": 241, "title_source": "ベーカリー＆カフェ ペニーレイン 柏の葉店 | 流山SANPO-BLOG", "link_source": "https://nagareyama-sanpo.net/2021/08/3-37/", "blog_source": "流山SANPO", "name_poi": "ペニーレイン", "flag_poi": "パン", "url_link": "https://pennylane.company/kashiwanoha", "url_flag": "1" }, "geometry": { "type": "Point", "coordinates": [ 139.953598199999988, 35.8985865 ] } },
{ "type": "Feature", "properties": { "fid": 242, "title_source": "【柏の葉】UKロックとパンの美味しい関係♪ 「ペニーレイン 柏の葉店」｜まちっと柏", "link_source": "https://machitto.jp/kashiwa/29822/", "blog_source": "まちっと柏", "name_poi": "ペニーレイン", "flag_poi": "パン", "url_link": "https://pennylane.company/kashiwanoha", "url_flag": "1" }, "geometry": { "type": "Point", "coordinates": [ 139.953598199999988, 35.8985865 ] } },
{ "type": "Feature", "properties": { "fid": 243, "title_source": "“ペンギンベーカリー”-柏の葉キャンパス店に行ってきた", "link_source": "https://nagalulu.com/penguinbakery/", "blog_source": "ながるる", "name_poi": "ペンギンベーカリー", "flag_poi": "パン", "url_link": "https://www.penguinbakery.com/", "url_flag": "1" }, "geometry": { "type": "Point", "coordinates": [ 139.940141399999987, 35.8874579 ] } },
{ "type": "Feature", "properties": { "fid": 244, "title_source": "親子で全力で遊べる♪【ボーネルンドあそびのせかい キドキド】(流山おおたかの森S・Cフラップス６階)", "link_source": "https://morino8.jp/odekake/bornelund-kidokid/", "blog_source": "モリノハ", "name_poi": "ボーネルンド", "flag_poi": "子育て　レジャー", "url_link": "https://kidokid.bornelund.co.jp/nagareyamaootakanomori/", "url_flag": "1" }, "geometry": { "type": "Point", "coordinates": [ 139.9240809, 35.8701515 ] } },
{ "type": "Feature", "properties": { "fid": 245, "title_source": "【流山】夏休み！子どもが喜ぶスポット♪「ボーネルンドあそびのせかい流山おおたかの森S・C店」で思いっきり遊ぼう！", "link_source": "https://machitto.jp/kashiwa/35855/", "blog_source": "まちっと柏", "name_poi": "ボーネルンド", "flag_poi": "子育て　レジャー", "url_link": "https://kidokid.bornelund.co.jp/nagareyamaootakanomori/", "url_flag": "1" }, "geometry": { "type": "Point", "coordinates": [ 139.9240809, 35.8701515 ] } },
{ "type": "Feature", "properties": { "fid": 246, "title_source": "柏市のボルダリング【ボルダリングパークGREEN ARROW（グリーンアロー）】モラージュ柏で手ぶらOK！キッズエリアも完備♪ | もりのは（モリノハ）", "link_source": "https://morino8.jp/odekake/green-arrow-kashiwa/", "blog_source": "モリノハ", "name_poi": "ボルダリングパーク", "flag_poi": "レジャー", "url_link": "https://www.instagram.com/ga_mallage_kashiwa/?utm_source=ig_embed", "url_flag": "2" }, "geometry": { "type": "Point", "coordinates": [ 139.969781, 35.882144 ] } },