{
"type": "FeatureCollection",
"name": "poi_data_2",
"crs": { "type": "name", "properties": { "name": "urn:ogc:def:crs:OGC:1.3:CRS84" } },
"features": [
{ "type": "Feature", "properties": { "link_source": "https://nagalulu.com/148cafe-lunch/", "blog_source": "ながるる", "name_poi": "148CAFE", "flag_poi": "1", "url_link": "https://barn148.jp/place/cafe/", "url_flag": "1" }, "geometry": { "type": "Point", "coordinates": [ 139.9264461, 35.8772106 ] } },
{ "type": "Feature", "properties": { "link_source": "https://machitto.jp/kashiwa/43873/", "blog_source": "まちっと柏", "name_poi": "21世紀の森と広場", "flag_poi": "2", "url_link": "https://www.city.matsudo.chiba.jp/shisetsu-guide/kouen_ryokuka/top/", "url_flag": "1" }, "geometry": { "type": "Point", "coordinates": [ 139.9381943, 35.803077 ] } },
{ "type": "Feature", "properties": { "link_source": "https://nagalulu.com/asobinosumika/", "blog_source": "ながるる", "name_poi": "21世紀の森と広場", "flag_poi": "2", "url_link": "https://www.city.matsudo.chiba.jp/shisetsu-guide/kouen_ryokuka/top/", "url_flag": "1" }, "geometry": { "type": "Point", "coordinates": [ 139.9381943, 35.803077 ] } },
{ "type": "Feature", "properties": { "link_source": "https://nagareyama-sumizumi.com/post-11936", "blog_source": "流山すみずみ", "name_poi": "AKOMEYA", "flag_poi": "4", "url_link": "https://www.akomeya.jp/store_info/store/snagareyama/", "url_flag": "1" }, "geometry": { "type": "Point", "coordinates": [ 139.9262168, 35.8713642 ] } },
{ "type": "Feature", "properties": { "link_source": "https://morino8.jp/gourmet/beerbrain_brewery/", "blog_source": "モリノハ", "name_poi": "BEER BRAIN BREWERY Taproom", "flag_poi": "1", "url_link": "https://www.instagram.com/beerbrain_brewery_taproom/", "url_flag": "2" }, "geometry": { "type": "Point", "coordinates": [ 139.9540083, 35.8966512 ] } },
{ "type": "Feature", "properties": { "link_source": "https://mrs.living.jp/kashiwa/town_gourmet/reporter/4784109", "blog_source": "リビングかしわ", "name_poi": "cafeわかば堂 柏の葉", "flag_poi": "1", "url_link": "http://wakabadou.com/index.html", "url_flag": "1" }, "geometry": { "type": "Point", "coordinates": [ 139.953459, 35.8961085 ] } },
{ "type": "Feature", "properties": { "link_source": "https://yuropom.com/cafe-wakabado-kashiwanoha/", "blog_source": "ゆろぽんのおいしいごはん。 ", "name_poi": "cafeわかば堂 柏の葉", "flag_poi": "1", "url_link": "http://wakabadou.com/index.html", "url_flag": "1" }, "geometry": { "type": "Point", "coordinates": [ 139.953459, 35.8961085 ] } },
{ "type": "Feature", "properties": { "link_source": "https://nagalulu.com/wakabadou/", "blog_source": "ながるる", "name_poi": "cafeわかば堂 柏の葉", "flag_poi": "1", "url_link": "http://wakabadou.com/index.html", "url_flag": "1" }, "geometry": { "type": "Point", "coordinates": [ 139.953459, 35.8961085 ] } },
{ "type": "Feature", "properties": { "link_source": "https://chikudays.com/omise/moriya_coffeecacaofactory/", "blog_source": "Chiku Days", "name_poi": "COFFEE&CACAO FACTORY", "flag_poi": "1", "url_link": "http://coffeefactory.jp/shopinfo/coffee-cacao-factory.html", "url_flag": "1" }, "geometry": { "type": "Point", "coordinates": [ 139.9942394, 35.9531236 ] } },
{ "type": "Feature", "properties": { "link_source": "https://www.thinving.net/topics-news/30400/", "blog_source": "シンヴィング", "name_poi": "COFFEE&CACAO FACTORY", "flag_poi": "1", "url_link": "http://coffeefactory.jp/shopinfo/coffee-cacao-factory.html", "url_flag": "1" }, "geometry": { "type": "Point", "coordinates": [ 139.9942394, 35.9531236 ] } },
{ "type": "Feature", "properties": { "link_source": "https://morino8.jp/gourmet/espresso-d-works/", "blog_source": "モリノハ", "name_poi": "Espresso D Worksカフェ", "flag_poi": "1", "url_link": "https://www.instagram.com/edw__ootakanomori_/", "url_flag": "2" }, "geometry": { "type": "Point", "coordinates": [ 139.9238808, 35.8718761 ] } },
{ "type": "Feature", "properties": { "link_source": "https://yuropom.com/kashiwanoha-i-b-diner/", "blog_source": "ゆろぽんのおいしいごはん。 ", "name_poi": "I.B Diner", "flag_poi": "1", "url_link": "https://ibdiner-kashiwanoha.owst.jp/", "url_flag": "1" }, "geometry": { "type": "Point", "coordinates": [ 139.9525883, 35.8916168 ] } },
{ "type": "Feature", "properties": { "link_source": "https://mrs.living.jp/kashiwa/town_gourmet/reporter/3544141", "blog_source": "リビングかしわ", "name_poi": "I.B Diner", "flag_poi": "1", "url_link": "https://ibdiner-kashiwanoha.owst.jp/", "url_flag": "1" }, "geometry": { "type": "Point", "coordinates": [ 139.9525883, 35.8916168 ] } },
{ "type": "Feature", "properties": { "link_source": "https://morino8.jp/gourmet/ib-terrace/", "blog_source": "モリノハ", "name_poi": "I.B TERRACE", "flag_poi": "1", "url_link": "https://www.instagram.com/ib_terrace_/", "url_flag": "2" }, "geometry": { "type": "Point", "coordinates": [ 139.924868, 35.8709749 ] } },
{ "type": "Feature", "properties": { "link_source": "https://nagalulu.com/ib-terrace/", "blog_source": "ながるる", "name_poi": "I.B TERRACE", "flag_poi": "1", "url_link": "https://www.instagram.com/ib_terrace_/", "url_flag": "2" }, "geometry": { "type": "Point", "coordinates": [ 139.924868, 35.8709749 ] } },
{ "type": "Feature", "properties": { "link_source": "https://kurowata.com/car-kashitana/", "blog_source": "柏たなかマニア", "name_poi": "JASSPORT柏田中", "flag_poi": "6", "url_link": "-", "url_flag": "0" }, "geometry": { "type": "Point", "coordinates": [ 139.9594817, 35.9031545 ] } },
{ "type": "Feature", "properties": { "link_source": "https://nagareyama-sanpo.net/2022/12/24-52/", "blog_source": "流山SANPO", "name_poi": "LIANTIQUE", "flag_poi": "1", "url_link": "https://liantique.thebase.in/about", "url_flag": "1" }, "geometry": { "type": "Point", "coordinates": [ 139.8961474, 35.8335638 ] } },
{ "type": "Feature", "properties": { "link_source": "https://nagareyama-sanpo.net/2019/06/25-17/", "blog_source": "流山SANPO", "name_poi": "MIYAMA", "flag_poi": "1", "url_link": "http://www.trattoriamiyama.com/", "url_flag": "1" }, "geometry": { "type": "Point", "coordinates": [ 139.9516452, 35.9122968 ] } },
{ "type": "Feature", "properties": { "link_source": "https://mrs.living.jp/kashiwa/town_gourmet/reporter/4363299", "blog_source": "リビングかしわ", "name_poi": "MIYAMA", "flag_poi": "1", "url_link": "http://www.trattoriamiyama.com/", "url_flag": "1" }, "geometry": { "type": "Point", "coordinates": [ 139.9516452, 35.9122968 ] } },
{ "type": "Feature", "properties": { "link_source": "https://yuropom.com/noodles-cafe-men-oh/", "blog_source": "ゆろぽんのおいしいごはん。 ", "name_poi": "Noodles&Cafe MEN-OH", "flag_poi": "1", "url_link": "https://cafe-menoh.com/", "url_flag": "1" }, "geometry": { "type": "Point", "coordinates": [ 139.9534429, 35.8962456 ] } },
{ "type": "Feature", "properties": { "link_source": "https://nagalulu.com/noodlescafe-menoh/", "blog_source": "ながるる", "name_poi": "Noodles&Cafe MEN-OH", "flag_poi": "1", "url_link": "https://cafe-menoh.com/", "url_flag": "1" }, "geometry": { "type": "Point", "coordinates": [ 139.9534429, 35.8962456 ] } },
{ "type": "Feature", "properties": { "link_source": "https://morino8.jp/gourmet/ramen-yamada/", "blog_source": "モリノハ", "name_poi": "RAMEN YAMADA", "flag_poi": "1", "url_link": "https://www.instagram.com/ramen.yamada/", "url_flag": "2" }, "geometry": { "type": "Point", "coordinates": [ 139.9216011, 35.8716054 ] } },
{ "type": "Feature", "properties": { "link_source": "https://machitto.jp/kashiwa/54612/", "blog_source": "まちっと柏", "name_poi": "RAMEN YAMADA", "flag_poi": "1", "url_link": "https://www.instagram.com/ramen.yamada/", "url_flag": "2" }, "geometry": { "type": "Point", "coordinates": [ 139.9216011, 35.8716054 ] } },
{ "type": "Feature", "properties": { "link_source": "https://nagalulu.com/ramen-yamada/", "blog_source": "ながるる", "name_poi": "RAMEN YAMADA", "flag_poi": "1", "url_link": "https://www.instagram.com/ramen.yamada/", "url_flag": "2" }, "geometry": { "type": "Point", "coordinates": [ 139.9216011, 35.8716054 ] } },
{ "type": "Feature", "properties": { "link_source": "https://kurowata.com/solito-mago-coffee-labo/", "blog_source": "柏たなかマニア", "name_poi": "SOLITO MAGO COFFEE LABO", "flag_poi": "4", "url_link": "https://solitomago.thebase.in/about", "url_flag": "1" }, "geometry": { "type": "Point", "coordinates": [ 139.953883100000013, 35.89654 ] } },
{ "type": "Feature", "properties": { "link_source": "https://morino8.jp/gourmet/sweedeedee/", "blog_source": "モリノハ", "name_poi": "sweedeedee", "flag_poi": "1", "url_link": "http://www.sweedeedee.jp/", "url_flag": "1" }, "geometry": { "type": "Point", "coordinates": [ 139.950976200000014, 35.9012842 ] } },
{ "type": "Feature", "properties": { "link_source": "https://yuropom.com/sweedeedee-kashiwanoha/", "blog_source": "ゆろぽんのおいしいごはん。 ", "name_poi": "sweedeedee", "flag_poi": "1", "url_link": "http://www.sweedeedee.jp/", "url_flag": "1" }, "geometry": { "type": "Point", "coordinates": [ 139.950976200000014, 35.9012842 ] } },
{ "type": "Feature", "properties": { "link_source": "https://mrs.living.jp/kashiwa/town_gourmet/reporter/4866091", "blog_source": "リビングかしわ", "name_poi": "sweedeedee", "flag_poi": "1", "url_link": "http://www.sweedeedee.jp/", "url_flag": "1" }, "geometry": { "type": "Point", "coordinates": [ 139.950976200000014, 35.9012842 ] } },
{ "type": "Feature", "properties": { "link_source": "https://machitto.jp/kashiwa/55225/", "blog_source": "まちっと柏", "name_poi": "TESHI", "flag_poi": "1", "url_link": "-", "url_flag": "0" }, "geometry": { "type": "Point", "coordinates": [ 139.9720892, 35.8591292 ] } },
{ "type": "Feature", "properties": { "link_source": "https://nagareyama-sanpo.net/2022/12/20-53/", "blog_source": "流山SANPO", "name_poi": "The Meat Dutch", "flag_poi": "1", "url_link": "https://www.the-meat-dutch.com/", "url_flag": "1" }, "geometry": { "type": "Point", "coordinates": [ 139.9544013, 35.8976289 ] } },
{ "type": "Feature", "properties": { "link_source": "https://machitto.jp/kashiwa/52550/", "blog_source": "まちっと柏", "name_poi": "The Meat Dutch", "flag_poi": "1", "url_link": "https://www.the-meat-dutch.com/", "url_flag": "1" }, "geometry": { "type": "Point", "coordinates": [ 139.9544013, 35.8976289 ] } },
{ "type": "Feature", "properties": { "link_source": "https://yuropom.com/kashiwa-ayubowan/", "blog_source": "ゆろぽんのおいしいごはん。 ", "name_poi": "アーユーボーワン", "flag_poi": "1", "url_link": "https://www.ayubowan.jp/", "url_flag": "1" }, "geometry": { "type": "Point", "coordinates": [ 139.975985900000012, 35.8592557 ] } },
{ "type": "Feature", "properties": { "link_source": "https://mrs.living.jp/kashiwa/town_gourmet/reporter/4208283", "blog_source": "リビングかしわ", "name_poi": "アーユーボーワン", "flag_poi": "1", "url_link": "https://www.ayubowan.jp/", "url_flag": "1" }, "geometry": { "type": "Point", "coordinates": [ 139.975985900000012, 35.8592557 ] } },
{ "type": "Feature", "properties": { "link_source": "https://nagalulu.com/akebonoyama-nougyoukouen-sunflower/", "blog_source": "ながるる", "name_poi": "あけぼの山農業公園", "flag_poi": "2", "url_link": "https://www.akebonoyama-nougyoukouen.jp/", "url_flag": "1" }, "geometry": { "type": "Point", "coordinates": [ 140.0051398, 35.8945588 ] } },
{ "type": "Feature", "properties": { "link_source": "https://morino8.jp/gourmet/anniversaire/", "blog_source": "モリノハ", "name_poi": "アニヴェルセル柏", "flag_poi": "1", "url_link": "https://www.instagram.com/avs_kashiwa_cafe_lunch/", "url_flag": "2" }, "geometry": { "type": "Point", "coordinates": [ 139.9548533, 35.8972204 ] } },
{ "type": "Feature", "properties": { "link_source": "https://mrs.living.jp/kashiwa/town_gourmet/reporter/4367464", "blog_source": "リビングかしわ", "name_poi": "アニヴェルセル柏", "flag_poi": "1", "url_link": "https://www.instagram.com/avs_kashiwa_cafe_lunch/", "url_flag": "2" }, "geometry": { "type": "Point", "coordinates": [ 139.9548533, 35.8972204 ] } },
{ "type": "Feature", "properties": { "link_source": "https://machitto.jp/kashiwa/55203/", "blog_source": "まちっと柏", "name_poi": "アニヴェルセル柏", "flag_poi": "1", "url_link": "https://www.instagram.com/avs_kashiwa_cafe_lunch/", "url_flag": "2" }, "geometry": { "type": "Point", "coordinates": [ 139.9548533, 35.8972204 ] } },
{ "type": "Feature", "properties": { "link_source": "https://blog.goo.ne.jp/kasiwanohappa/e/9ee1497a5cea81f8da7dc017c830e0e4", "blog_source": "柏の葉STORY", "name_poi": "オーガニック野菜市 GOOD NEIGHBORS MARKET", "flag_poi": "4", "url_link": "-", "url_flag": "0" }, "geometry": { "type": "Point", "coordinates": [ 139.953446500000013, 35.8960745 ] } },
{ "type": "Feature", "properties": { "link_source": "https://kurowata.com/omedetaiyaki/", "blog_source": "柏たなかマニア", "name_poi": "おめで鯛焼き本舗", "flag_poi": "4", "url_link": "-", "url_flag": "0" }, "geometry": { "type": "Point", "coordinates": [ 139.9517871, 35.8936514 ] } },
{ "type": "Feature", "properties": { "link_source": "https://machisirube.com/machi-repo/14104", "blog_source": "まちしるべ", "name_poi": "ガーデン・ベリーズ", "flag_poi": "1", "url_link": "https://www.garden-berries.com/", "url_flag": "1" }, "geometry": { "type": "Point", "coordinates": [ 139.9163474, 35.8776304 ] } },
{ "type": "Feature", "properties": { "link_source": "https://nagalulu.com/garden-berries/", "blog_source": "ながるる", "name_poi": "ガーデン・ベリーズ", "flag_poi": "1", "url_link": "https://www.garden-berries.com/", "url_flag": "1" }, "geometry": { "type": "Point", "coordinates": [ 139.9163474, 35.8776304 ] } },
{ "type": "Feature", "properties": { "link_source": "https://mrs.living.jp/kashiwa/shopping/reporter/4828371", "blog_source": "リビングかしわ", "name_poi": "カフェドジュアン", "flag_poi": "1", "url_link": "https://www.juin.co.jp/shop", "url_flag": "1" }, "geometry": { "type": "Point", "coordinates": [ 139.9728571, 35.8765771 ] } },
{ "type": "Feature", "properties": { "link_source": "https://yuropom.com/kashiwanoha-cafe-agora/", "blog_source": "ゆろぽんのおいしいごはん。 ", "name_poi": "カフェレストランAGORA", "flag_poi": "1", "url_link": "http://agora.tios-group.com/", "url_flag": "1" }, "geometry": { "type": "Point", "coordinates": [ 139.9517842, 35.8947986 ] } },
{ "type": "Feature", "properties": { "link_source": "https://nagareyama-sanpo.net/2022/12/18-55/", "blog_source": "流山SANPO", "name_poi": "カフェレストランAGORA", "flag_poi": "1", "url_link": "http://agora.tios-group.com/", "url_flag": "1" }, "geometry": { "type": "Point", "coordinates": [ 139.9517842, 35.8947986 ] } },
{ "type": "Feature", "properties": { "link_source": "https://machitto.jp/kashiwa/29279/", "blog_source": "まちっと柏", "name_poi": "きむらややむき", "flag_poi": "4", "url_link": "-", "url_flag": "0" }, "geometry": { "type": "Point", "coordinates": [ 139.94804, 35.9064985 ] } },
{ "type": "Feature", "properties": { "link_source": "https://creators.yahoo.co.jp/mook/0100220485", "blog_source": "Mook(Yahoo Creators)", "name_poi": "きむらややむき", "flag_poi": "4", "url_link": "-", "url_flag": "0" }, "geometry": { "type": "Point", "coordinates": [ 139.94804, 35.9064985 ] } },
{ "type": "Feature", "properties": { "link_source": "https://morino8.jp/gourmet/kimuraya-sohonten/", "blog_source": "モリノハ", "name_poi": "きむらややむき", "flag_poi": "4", "url_link": "-", "url_flag": "0" }, "geometry": { "type": "Point", "coordinates": [ 139.94804, 35.9064985 ] } },
{ "type": "Feature", "properties": { "link_source": "https://kashiwanoha-cycle-life.blog.jp/archives/51844446.html", "blog_source": "柏の葉サイクルライフ", "name_poi": "きむらややむき", "flag_poi": "4", "url_link": "-", "url_flag": "0" }, "geometry": { "type": "Point", "coordinates": [ 139.94804, 35.9064985 ] } },
{ "type": "Feature", "properties": { "link_source": "https://morino8.jp/gourmet/kiriya/", "blog_source": "モリノハ", "name_poi": "キリヤ", "flag_poi": "1", "url_link": "-", "url_flag": "0" }, "geometry": { "type": "Point", "coordinates": [ 139.916458799999987, 35.8818505 ] } },
{ "type": "Feature", "properties": { "link_source": "https://mrs.living.jp/kashiwa/town_gourmet/reporter/3359534", "blog_source": "リビングかしわ", "name_poi": "キリヤ", "flag_poi": "1", "url_link": "-", "url_flag": "0" }, "geometry": { "type": "Point", "coordinates": [ 139.916458799999987, 35.8818505 ] } },
{ "type": "Feature", "properties": { "link_source": "https://machisirube.com/machi-repo/13851", "blog_source": "まちしるべ", "name_poi": "キリヤ", "flag_poi": "1", "url_link": "-", "url_flag": "0" }, "geometry": { "type": "Point", "coordinates": [ 139.916458799999987, 35.8818505 ] } },
{ "type": "Feature", "properties": { "link_source": "https://40papa.com/gourmet/30936/", "blog_source": "40papa", "name_poi": "クーロンヌ", "flag_poi": "1", "url_link": "https://www.couronne.co.jp/shop/otakanomori", "url_flag": "1" }, "geometry": { "type": "Point", "coordinates": [ 139.9211867, 35.8725034 ] } },
{ "type": "Feature", "properties": { "link_source": "https://morino8.jp/gourmet/comestadome/", "blog_source": "モリノハ", "name_poi": "コメスタ柏の葉", "flag_poi": "1", "url_link": "http://comestadome.jp/", "url_flag": "1" }, "geometry": { "type": "Point", "coordinates": [ 139.9524821, 35.8952839 ] } },
{ "type": "Feature", "properties": { "link_source": "https://mrs.living.jp/kashiwa/town_gourmet/reporter/4526760", "blog_source": "リビングかしわ", "name_poi": "コメスタ柏の葉", "flag_poi": "1", "url_link": "http://comestadome.jp/", "url_flag": "1" }, "geometry": { "type": "Point", "coordinates": [ 139.9524821, 35.8952839 ] } },
{ "type": "Feature", "properties": { "link_source": "https://yuropom.com/kashiwanoha-comesta/", "blog_source": "ゆろぽんのおいしいごはん。 ", "name_poi": "コメスタ柏の葉", "flag_poi": "1", "url_link": "http://comestadome.jp/", "url_flag": "1" }, "geometry": { "type": "Point", "coordinates": [ 139.9524821, 35.8952839 ] } },
{ "type": "Feature", "properties": { "link_source": "https://nagalulu.com/konbukuroike/", "blog_source": "ながるる", "name_poi": "こんぶくろ池", "flag_poi": "2", "url_link": "https://www.konbukuroike.com/", "url_flag": "1" }, "geometry": { "type": "Point", "coordinates": [ 139.942947, 35.9028289 ] } },
{ "type": "Feature", "properties": { "link_source": "https://kashiwanoha-cycle-life.blog.jp/archives/51839905.html", "blog_source": "柏の葉サイクルライフ", "name_poi": "こんぶくろ池", "flag_poi": "2", "url_link": "https://www.konbukuroike.com/", "url_flag": "1" }, "geometry": { "type": "Point", "coordinates": [ 139.942947, 35.9028289 ] } },
{ "type": "Feature", "properties": { "link_source": "https://nagalulu.com/s_otakanomori/", "blog_source": "ながるる", "name_poi": "サフラン", "flag_poi": "1", "url_link": "https://saffron-pan.jp/s_otakanomori.html", "url_flag": "1" }, "geometry": { "type": "Point", "coordinates": [ 139.9321765, 35.8742471 ] } },
{ "type": "Feature", "properties": { "link_source": "https://kurowata.com/safran/", "blog_source": "柏たなかマニア", "name_poi": "サフラン", "flag_poi": "1", "url_link": "https://saffron-pan.jp/s_kashiwanoha.html", "url_flag": "1" }, "geometry": { "type": "Point", "coordinates": [ 139.9258379, 35.8986882 ] } },
{ "type": "Feature", "properties": { "link_source": "https://mrs.living.jp/kashiwa/town_gourmet/reporter/3911327", "blog_source": "リビングかしわ", "name_poi": "サンドウィッチカフェ ペジーブル", "flag_poi": "1", "url_link": "https://paisible-wanahome.com/store/paisible-kashiwa/", "url_flag": "1" }, "geometry": { "type": "Point", "coordinates": [ 139.9766438, 35.8668852 ] } },
{ "type": "Feature", "properties": { "link_source": "https://kurowata.com/shironohachi/", "blog_source": "柏たなかマニア", "name_poi": "しろのはち。", "flag_poi": "4", "url_link": "https://www.shironohachi.jp/", "url_flag": "1" }, "geometry": { "type": "Point", "coordinates": [ 139.9562779, 35.9075352 ] } },
{ "type": "Feature", "properties": { "link_source": "https://kurowata.com/senariohouse-park/", "blog_source": "柏たなかマニア", "name_poi": "セナリオハウスパーク", "flag_poi": "1", "url_link": "https://www.instagram.com/kashiwa_tanaka_event/", "url_flag": "2" }, "geometry": { "type": "Point", "coordinates": [ 139.958441599999986, 35.9093365 ] } },
{ "type": "Feature", "properties": { "link_source": "https://kashiwanoha-cycle-life.blog.jp/archives/51847386.html", "blog_source": "柏の葉サイクルライフ", "name_poi": "セナリオハウスパーク", "flag_poi": "1", "url_link": "https://www.instagram.com/kashiwa_tanaka_event/", "url_flag": "2" }, "geometry": { "type": "Point", "coordinates": [ 139.958441599999986, 35.9093365 ] } },
{ "type": "Feature", "properties": { "link_source": "https://nagalulu.com/hakuryu/", "blog_source": "ながるる", "name_poi": "つけ麺 柏龍", "flag_poi": "1", "url_link": "-", "url_flag": "0" }, "geometry": { "type": "Point", "coordinates": [ 139.9154768, 35.8841568 ] } },
{ "type": "Feature", "properties": { "link_source": "https://nagareyama-sanpo.net/2020/04/2-20/", "blog_source": "流山SANPO", "name_poi": "トネリコカフェ", "flag_poi": "1", "url_link": "https://www.instagram.com/tonericocafe/", "url_flag": "2" }, "geometry": { "type": "Point", "coordinates": [ 139.957132699999988, 35.9185079 ] } },
{ "type": "Feature", "properties": { "link_source": "https://machitto.jp/kashiwa/17523/", "blog_source": "まちっと柏", "name_poi": "とんかつ美とん", "flag_poi": "1", "url_link": "https://gh3g500.gorp.jp/", "url_flag": "1" }, "geometry": { "type": "Point", "coordinates": [ 139.9728222, 35.864133 ] } },
{ "type": "Feature", "properties": { "link_source": "https://40papa.com/gourmet/30804/", "blog_source": "40papa", "name_poi": "バーガーキング", "flag_poi": "1", "url_link": "-", "url_flag": "0" }, "geometry": { "type": "Point", "coordinates": [ 139.9208956, 35.8719881 ] } },
{ "type": "Feature", "properties": { "link_source": "https://mrs.living.jp/kashiwa/town_gourmet/reporter/4876894", "blog_source": "リビングかしわ", "name_poi": "パティスリー・フィユ", "flag_poi": "1", "url_link": "https://patisserie-feuille.jp/", "url_flag": "1" }, "geometry": { "type": "Point", "coordinates": [ 139.9533813, 35.8959054 ] } },
{ "type": "Feature", "properties": { "link_source": "https://tokatsulunch.com/20241/", "blog_source": "東葛ランチ天国", "name_poi": "パティスリー・フィユ", "flag_poi": "1", "url_link": "https://patisserie-feuille.jp/", "url_flag": "1" }, "geometry": { "type": "Point", "coordinates": [ 139.9533813, 35.8959054 ] } },
{ "type": "Feature", "properties": { "link_source": "https://morino8.jp/gourmet/patisserie_feuille/", "blog_source": "モリノハ", "name_poi": "パティスリー・フィユ", "flag_poi": "1", "url_link": "https://patisserie-feuille.jp/", "url_flag": "1" }, "geometry": { "type": "Point", "coordinates": [ 139.9533813, 35.8959054 ] } },
{ "type": "Feature", "properties": { "link_source": "https://creators.yahoo.co.jp/mook/0100198846", "blog_source": "Mook(Yahoo Creators)", "name_poi": "パティスリー・フィユ", "flag_poi": "1", "url_link": "https://patisserie-feuille.jp/", "url_flag": "1" }, "geometry": { "type": "Point", "coordinates": [ 139.9533813, 35.8959054 ] } },
{ "type": "Feature", "properties": { "link_source": "https://mrs.living.jp/kashiwa/town_gourmet/reporter/4887787", "blog_source": "リビングかしわ", "name_poi": "ひまつぶしカフェ", "flag_poi": "1", "url_link": "https://www.instagram.com/himatsubushi.flower/", "url_flag": "2" }, "geometry": { "type": "Point", "coordinates": [ 139.9593381, 35.8867051 ] } },
{ "type": "Feature", "properties": { "link_source": "https://ameblo.jp/mame634/entry-12770878275.html", "blog_source": "柏の葉ママブログ", "name_poi": "ひまつぶしカフェ", "flag_poi": "1", "url_link": "https://www.instagram.com/himatsubushi.flower/", "url_flag": "2" }, "geometry": { "type": "Point", "coordinates": [ 139.9593381, 35.8867051 ] } },
{ "type": "Feature", "properties": { "link_source": "https://mrs.living.jp/kashiwa/town_gourmet/reporter/4614443", "blog_source": "リビングかしわ", "name_poi": "ブラッスリーしんかわ", "flag_poi": "1", "url_link": "https://www.instagram.com/shinkawa7633/", "url_flag": "2" }, "geometry": { "type": "Point", "coordinates": [ 139.90226, 35.9146767 ] } },
{ "type": "Feature", "properties": { "link_source": "https://machitto.jp/kashiwa/11096/", "blog_source": "まちっと柏", "name_poi": "ブラッスリーしんかわ", "flag_poi": "1", "url_link": "https://www.instagram.com/shinkawa7633/", "url_flag": "2" }, "geometry": { "type": "Point", "coordinates": [ 139.90226, 35.9146767 ] } },
{ "type": "Feature", "properties": { "link_source": "https://mrs.living.jp/kashiwa/newopen/reporter/4620669", "blog_source": "リビングかしわ", "name_poi": "ブランチ守谷", "flag_poi": "2", "url_link": "https://www.branch-sc.com/moriya/", "url_flag": "1" }, "geometry": { "type": "Point", "coordinates": [ 139.9936013, 35.9529187 ] } },
{ "type": "Feature", "properties": { "link_source": "https://yuropom.com/kashiwanoha-penny-lane/", "blog_source": "ゆろぽんのおいしいごはん。 ", "name_poi": "ペニーレイン", "flag_poi": "1", "url_link": "https://pennylane.company/kashiwanoha", "url_flag": "1" }, "geometry": { "type": "Point", "coordinates": [ 139.953598199999988, 35.8985865 ] } },
{ "type": "Feature", "properties": { "link_source": "https://morino8.jp/gourmet/pennylane/", "blog_source": "モリノハ", "name_poi": "ペニーレイン", "flag_poi": "1", "url_link": "https://pennylane.company/kashiwanoha", "url_flag": "1" }, "geometry": { "type": "Point", "coordinates": [ 139.953598199999988, 35.8985865 ] } },
{ "type": "Feature", "properties": { "link_source": "https://nagalulu.com/penny-lane-kashiwanoha/", "blog_source": "ながるる", "name_poi": "ペニーレイン", "flag_poi": "1", "url_link": "https://pennylane.company/kashiwanoha", "url_flag": "1" }, "geometry": { "type": "Point", "coordinates": [ 139.953598199999988, 35.8985865 ] } },
{ "type": "Feature", "properties": { "link_source": "https://nagareyama-sanpo.net/2021/08/3-37/", "blog_source": "流山SANPO", "name_poi": "ペニーレイン", "flag_poi": "1", "url_link": "https://pennylane.company/kashiwanoha", "url_flag": "1" }, "geometry": { "type": "Point", "coordinates": [ 139.953598199999988, 35.8985865 ] } },
{ "type": "Feature", "properties": { "link_source": "https://machitto.jp/kashiwa/29822/", "blog_source": "まちっと柏", "name_poi": "ペニーレイン", "flag_poi": "1", "url_link": "https://pennylane.company/kashiwanoha", "url_flag": "1" }, "geometry": { "type": "Point", "coordinates": [ 139.953598199999988, 35.8985865 ] } },
{ "type": "Feature", "properties": { "link_source": "https://nagalulu.com/penguinbakery/", "blog_source": "ながるる", "name_poi": "ペンギンベーカリー", "flag_poi": "1", "url_link": "https://www.penguinbakery.com/", "url_flag": "1" }, "geometry": { "type": "Point", "coordinates": [ 139.940141399999987, 35.8874579 ] } },
{ "type": "Feature", "properties": { "link_source": "https://morino8.jp/odekake/bornelund-kidokid/", "blog_source": "モリノハ", "name_poi": "ボーネルンド", "flag_poi": "3", "url_link": "https://kidokid.bornelund.co.jp/nagareyamaootakanomori/", "url_flag": "1" }, "geometry": { "type": "Point", "coordinates": [ 139.9240809, 35.8701515 ] } },
{ "type": "Feature", "properties": { "link_source": "https://machitto.jp/kashiwa/35855/", "blog_source": "まちっと柏", "name_poi": "ボーネルンド", "flag_poi": "3", "url_link": "https://kidokid.bornelund.co.jp/nagareyamaootakanomori/", "url_flag": "1" }, "geometry": { "type": "Point", "coordinates": [ 139.9240809, 35.8701515 ] } },
{ "type": "Feature", "properties": { "link_source": "https://mrs.living.jp/kashiwa/town_gourmet/reporter/3620333", "blog_source": "リビングかしわ", "name_poi": "マ キュイジーヌ", "flag_poi": "1", "url_link": "https://www.instagram.com/ma.cuisine.5/", "url_flag": "2" }, "geometry": { "type": "Point", "coordinates": [ 139.974219799999986, 35.8602317 ] } },
{ "type": "Feature", "properties": { "link_source": "https://machitto.jp/kashiwa/11633/", "blog_source": "まちっと柏", "name_poi": "マ キュイジーヌ", "flag_poi": "1", "url_link": "https://www.instagram.com/ma.cuisine.5/", "url_flag": "2" }, "geometry": { "type": "Point", "coordinates": [ 139.974219799999986, 35.8602317 ] } },
{ "type": "Feature", "properties": { "link_source": "https://yuropom.com/kashiwa-ma-cuisine/", "blog_source": "ゆろぽんのおいしいごはん。 ", "name_poi": "マ キュイジーヌ", "flag_poi": "1", "url_link": "https://www.instagram.com/ma.cuisine.5/", "url_flag": "2" }, "geometry": { "type": "Point", "coordinates": [ 139.974219799999986, 35.8602317 ] } },
{ "type": "Feature", "properties": { "link_source": "https://morino8.jp/odekake/kidsusland/", "blog_source": "モリノハ", "name_poi": "マルハン柏の室内遊園地", "flag_poi": "3", "url_link": "-", "url_flag": "0" }, "geometry": { "type": "Point", "coordinates": [ 139.959199399999989, 35.8822046 ] } },
{ "type": "Feature", "properties": { "link_source": "https://chikudays.com/omise/moriya_seneidousagiya/", "blog_source": "Chiku Days", "name_poi": "まるやま千栄堂USAGIYA", "flag_poi": "1", "url_link": "-", "url_flag": "0" }, "geometry": { "type": "Point", "coordinates": [ 139.9937405, 35.9531463 ] } },
{ "type": "Feature", "properties": { "link_source": "https://www.thinving.net/topics-news/30064/", "blog_source": "シンヴィング", "name_poi": "まるやま千栄堂USAGIYA", "flag_poi": "1", "url_link": "-", "url_flag": "0" }, "geometry": { "type": "Point", "coordinates": [ 139.9937405, 35.9531463 ] } },
{ "type": "Feature", "properties": { "link_source": "https://nagalulu.com/mmcoffee/", "blog_source": "ながるる", "name_poi": "むさしの森珈琲", "flag_poi": "1", "url_link": "https://store-info.skylark.co.jp/mmcoffee/map/198247", "url_flag": "1" }, "geometry": { "type": "Point", "coordinates": [ 139.9319492, 35.8746871 ] } },
{ "type": "Feature", "properties": { "link_source": "https://yuropom.com/kashiwa-meno-wakashiba/", "blog_source": "ゆろぽんのおいしいごはん。 ", "name_poi": "めん王", "flag_poi": "1", "url_link": "http://menoh.com/", "url_flag": "1" }, "geometry": { "type": "Point", "coordinates": [ 139.955465, 35.8975114 ] } },
{ "type": "Feature", "properties": { "link_source": "https://morino8.jp/odekake/yuukari-koutuu/", "blog_source": "モリノハ", "name_poi": "ユーカリ交通公園", "flag_poi": "2", "url_link": "https://www.city.matsudo.chiba.jp/shisetsu-guide/kouen_ryokuka/yuukari-koutuu.html", "url_flag": "1" }, "geometry": { "type": "Point", "coordinates": [ 139.9403903, 35.8245356 ] } },
{ "type": "Feature", "properties": { "link_source": "https://nagalulu.com/yuukari-koutuu/", "blog_source": "ながるる", "name_poi": "ユーカリ交通公園", "flag_poi": "2", "url_link": "https://www.city.matsudo.chiba.jp/shisetsu-guide/kouen_ryokuka/yuukari-koutuu.html", "url_flag": "1" }, "geometry": { "type": "Point", "coordinates": [ 139.9403903, 35.8245356 ] } },
{ "type": "Feature", "properties": { "link_source": "https://machitto.jp/kashiwa/34958/", "blog_source": "まちっと柏", "name_poi": "ラ・マリニエール", "flag_poi": "4", "url_link": "https://www.instagram.com/lamariniere_kashiwanoha/", "url_flag": "2" }, "geometry": { "type": "Point", "coordinates": [ 139.953446500000013, 35.8960745 ] } },
{ "type": "Feature", "properties": { "link_source": "https://mrs.living.jp/kashiwa/town_news/reporter/4484051", "blog_source": "リビングかしわ", "name_poi": "ラ・マリニエール", "flag_poi": "4", "url_link": "https://www.instagram.com/lamariniere_kashiwanoha/", "url_flag": "2" }, "geometry": { "type": "Point", "coordinates": [ 139.953446500000013, 35.8960745 ] } },
{ "type": "Feature", "properties": { "link_source": "https://machitto.jp/kashiwa/22954/", "blog_source": "まちっと柏", "name_poi": "ラザーニャバー", "flag_poi": "1", "url_link": "https://www.instagram.com/lasagna_bar_/", "url_flag": "2" }, "geometry": { "type": "Point", "coordinates": [ 139.952380799999986, 35.8454618 ] } },
{ "type": "Feature", "properties": { "link_source": "https://yuropom.com/minamikashiwa-lasagna-bar/", "blog_source": "ゆろぽんのおいしいごはん。 ", "name_poi": "ラザーニャバー", "flag_poi": "1", "url_link": "https://www.instagram.com/lasagna_bar_/", "url_flag": "2" }, "geometry": { "type": "Point", "coordinates": [ 139.952380799999986, 35.8454618 ] } },
{ "type": "Feature", "properties": { "link_source": "https://kurowata.com/lalaport-playground-free/", "blog_source": "柏たなかマニア", "name_poi": "ららぽーと柏の葉", "flag_poi": "3", "url_link": "https://mitsui-shopping-park.com/lalaport/kashiwa/", "url_flag": "1" }, "geometry": { "type": "Point", "coordinates": [ 139.9512925, 35.8939975 ] } },
{ "type": "Feature", "properties": { "link_source": "https://machitto.jp/kashiwa/47335/", "blog_source": "まちっと柏", "name_poi": "ル・パンタゴン", "flag_poi": "1", "url_link": "https://www.instagram.com/le_paintagone/", "url_flag": "2" }, "geometry": { "type": "Point", "coordinates": [ 139.902115900000013, 35.8511206 ] } },
{ "type": "Feature", "properties": { "link_source": "https://nagalulu.com/le-paintagone/", "blog_source": "ながるる", "name_poi": "ル・パンタゴン", "flag_poi": "1", "url_link": "https://www.instagram.com/le_paintagone/", "url_flag": "2" }, "geometry": { "type": "Point", "coordinates": [ 139.902115900000013, 35.8511206 ] } },
{ "type": "Feature", "properties": { "link_source": "https://morino8.jp/gourmet/lestempsplus/", "blog_source": "モリノハ", "name_poi": "レタンプリュス", "flag_poi": "1", "url_link": "https://lestempsplus.com/", "url_flag": "1" }, "geometry": { "type": "Point", "coordinates": [ 139.9195171, 35.8635406 ] } },
{ "type": "Feature", "properties": { "link_source": "https://aumo.jp/articles/46497", "blog_source": "aumo", "name_poi": "喜楽寿司", "flag_poi": "1", "url_link": "-", "url_flag": "0" }, "geometry": { "type": "Point", "coordinates": [ 139.9588608, 35.9035225 ] } },
{ "type": "Feature", "properties": { "link_source": "https://kurowata.com/ushijimaya/", "blog_source": "柏たなかマニア", "name_poi": "牛島屋", "flag_poi": "4", "url_link": "https://www.instagram.com/nikunoushijimaya/", "url_flag": "2" }, "geometry": { "type": "Point", "coordinates": [ 139.967011, 35.8972138 ] } },
{ "type": "Feature", "properties": { "link_source": "https://creators.yahoo.co.jp/mook/0100199821", "blog_source": "Mook(Yahoo Creators)", "name_poi": "牛島屋", "flag_poi": "4", "url_link": "https://www.instagram.com/nikunoushijimaya/", "url_flag": "2" }, "geometry": { "type": "Point", "coordinates": [ 139.967011, 35.8972138 ] } },
{ "type": "Feature", "properties": { "link_source": "https://machitto.jp/kashiwa/6831/", "blog_source": "まちっと柏", "name_poi": "蕎麦 一玄", "flag_poi": "1", "url_link": "https://ichigen.gorp.jp/", "url_flag": "1" }, "geometry": { "type": "Point", "coordinates": [ 139.973516, 35.8612094 ] } },
{ "type": "Feature", "properties": { "link_source": "https://morino8.jp/odekake/gokurakuyu/", "blog_source": "モリノハ", "name_poi": "極楽湯", "flag_poi": "2", "url_link": "https://www.gokurakuyu.ne.jp/tempo/kashiwa/", "url_flag": "1" }, "geometry": { "type": "Point", "coordinates": [ 139.9669087, 35.8812907 ] } },
{ "type": "Feature", "properties": { "link_source": "https://kurowata.com/kinue-gyouza/", "blog_source": "柏たなかマニア", "name_poi": "絹江餃子", "flag_poi": "1", "url_link": "https://www.instagram.com/kinue.gyouza/", "url_flag": "2" }, "geometry": { "type": "Point", "coordinates": [ 139.962071, 35.9085585 ] } },
{ "type": "Feature", "properties": { "link_source": "https://machitto.jp/kashiwa/54343/", "blog_source": "まちっと柏", "name_poi": "黒澤惣三商店", "flag_poi": "1", "url_link": "https://www.instagram.com/9630sozo/", "url_flag": "2" }, "geometry": { "type": "Point", "coordinates": [ 139.9247356, 35.8716066 ] } },
{ "type": "Feature", "properties": { "link_source": "https://40papa.com/gourmet/30839/", "blog_source": "40papa", "name_poi": "笹陣", "flag_poi": "1", "url_link": "https://clea.co.jp/archives/shop/%e7%ac%b9%e9%99%a3-%e6%b5%81%e5%b1%b1%e5%ba%97", "url_flag": "1" }, "geometry": { "type": "Point", "coordinates": [ 139.9258811, 35.8705266 ] } },
{ "type": "Feature", "properties": { "link_source": "https://40papa.com/gourmet/ramen/12646/", "blog_source": "40papa", "name_poi": "支那そば ふなとり", "flag_poi": "1", "url_link": "-", "url_flag": "0" }, "geometry": { "type": "Point", "coordinates": [ 140.005061500000011, 35.817932 ] } },
{ "type": "Feature", "properties": { "link_source": "https://40papa.com/gourmet/ramen/30300/", "blog_source": "40papa", "name_poi": "舎鈴 ", "flag_poi": "1", "url_link": "https://www.tsukemen-sharin.com/", "url_flag": "1" }, "geometry": { "type": "Point", "coordinates": [ 139.9210224, 35.8720217 ] } },
{ "type": "Feature", "properties": { "link_source": "https://morino8.jp/gourmet/sharin/", "blog_source": "モリノハ", "name_poi": "舎鈴 ", "flag_poi": "1", "url_link": "https://www.tsukemen-sharin.com/", "url_flag": "1" }, "geometry": { "type": "Point", "coordinates": [ 139.9210224, 35.8720217 ] } },
{ "type": "Feature", "properties": { "link_source": "https://nagareyama-sanpo.net/2022/05/10-42/", "blog_source": "流山SANPO", "name_poi": "舎鈴 ", "flag_poi": "1", "url_link": "https://www.tsukemen-sharin.com/", "url_flag": "1" }, "geometry": { "type": "Point", "coordinates": [ 139.9210224, 35.8720217 ] } },
{ "type": "Feature", "properties": { "link_source": "https://nagalulu.com/tsukemen-sharin/", "blog_source": "ながるる", "name_poi": "舎鈴 ", "flag_poi": "1", "url_link": "https://www.tsukemen-sharin.com/", "url_flag": "1" }, "geometry": { "type": "Point", "coordinates": [ 139.9210224, 35.8720217 ] } },
{ "type": "Feature", "properties": { "link_source": "https://nagalulu.com/teganooka-park/", "blog_source": "ながるる", "name_poi": "手賀の丘公園", "flag_poi": "2", "url_link": "https://www.city.kashiwa.lg.jp/facilities/park/teganooka.html", "url_flag": "1" }, "geometry": { "type": "Point", "coordinates": [ 140.059763299999986, 35.8411049 ] } },
{ "type": "Feature", "properties": { "link_source": "https://morino8.jp/gourmet/juin/", "blog_source": "モリノハ", "name_poi": "樹杏", "flag_poi": "1", "url_link": "https://www.juin.co.jp/shop", "url_flag": "1" }, "geometry": { "type": "Point", "coordinates": [ 139.9512844, 35.8937318 ] } },
{ "type": "Feature", "properties": { "link_source": "https://machisirube.com/machi-repo/13783", "blog_source": "まちしるべ", "name_poi": "小倉ベーカリー", "flag_poi": "1", "url_link": "https://twitter.com/ogura_pan_h8", "url_flag": "3" }, "geometry": { "type": "Point", "coordinates": [ 139.915575, 35.884136 ] } },
{ "type": "Feature", "properties": { "link_source": "https://nagareyama-sumizumi.com/post-6200", "blog_source": "流山すみずみ", "name_poi": "小倉ベーカリー", "flag_poi": "1", "url_link": "https://twitter.com/ogura_pan_h8", "url_flag": "3" }, "geometry": { "type": "Point", "coordinates": [ 139.915575, 35.884136 ] } },
{ "type": "Feature", "properties": { "link_source": "https://mrs.living.jp/kashiwa/town_gourmet/reporter/3314757", "blog_source": "リビングかしわ", "name_poi": "小倉ベーカリー", "flag_poi": "1", "url_link": "https://twitter.com/ogura_pan_h8", "url_flag": "3" }, "geometry": { "type": "Point", "coordinates": [ 139.915575, 35.884136 ] } },
{ "type": "Feature", "properties": { "link_source": "https://morino8.jp/gourmet/ogura_pan/", "blog_source": "モリノハ", "name_poi": "小倉ベーカリー", "flag_poi": "1", "url_link": "https://twitter.com/ogura_pan_h8", "url_flag": "3" }, "geometry": { "type": "Point", "coordinates": [ 139.915575, 35.884136 ] } },
{ "type": "Feature", "properties": { "link_source": "https://nagalulu.com/ogura-pan/", "blog_source": "ながるる", "name_poi": "小倉ベーカリー", "flag_poi": "1", "url_link": "https://twitter.com/ogura_pan_h8", "url_flag": "3" }, "geometry": { "type": "Point", "coordinates": [ 139.915575, 35.884136 ] } },
{ "type": "Feature", "properties": { "link_source": "https://mrs.living.jp/kashiwa/event_leisure/reporter/4552871", "blog_source": "リビングかしわ", "name_poi": "松ヶ崎城跡", "flag_poi": "2", "url_link": "http://www.matsugasakijo.net/top.html", "url_flag": "1" }, "geometry": { "type": "Point", "coordinates": [ 139.9821115, 35.8789137 ] } },
{ "type": "Feature", "properties": { "link_source": "https://kurowata.com/sjimizu-park-athletic/", "blog_source": "柏たなかマニア", "name_poi": "清水公園", "flag_poi": "2", "url_link": "https://www.shimizu-kouen.com/", "url_flag": "1" }, "geometry": { "type": "Point", "coordinates": [ 139.850597099999987, 35.9596938 ] } },
{ "type": "Feature", "properties": { "link_source": "https://ameblo.jp/mame634/entry-12790117337.html", "blog_source": "柏の葉ママブログ", "name_poi": "台湾楽市Daizen", "flag_poi": "1", "url_link": "https://taiwanrakuichi-daizen.owst.jp/", "url_flag": "1" }, "geometry": { "type": "Point", "coordinates": [ 139.952858, 35.894786 ] } },
{ "type": "Feature", "properties": { "link_source": "https://creators.yahoo.co.jp/mook/0100188691", "blog_source": "Mook(Yahoo Creators)", "name_poi": "天然酵母パン ペジーブル", "flag_poi": "4", "url_link": "https://paisible-wanahome.com/store/paisible-kashiwa/", "url_flag": "1" }, "geometry": { "type": "Point", "coordinates": [ 139.9858243, 35.8688536 ] } },
{ "type": "Feature", "properties": { "link_source": "https://morino8.jp/odekake/sumire-onsen/", "blog_source": "モリノハ", "name_poi": "南柏天然温泉すみれ", "flag_poi": "2", "url_link": "https://minamikashiwa-sumire.com/", "url_flag": "1" }, "geometry": { "type": "Point", "coordinates": [ 139.9457702, 35.8413044 ] } },
{ "type": "Feature", "properties": { "link_source": "https://machitto.jp/kashiwa/32554/", "blog_source": "まちっと柏", "name_poi": "南柏天然温泉すみれ", "flag_poi": "2", "url_link": "https://minamikashiwa-sumire.com/", "url_flag": "1" }, "geometry": { "type": "Point", "coordinates": [ 139.9457702, 35.8413044 ] } },
{ "type": "Feature", "properties": { "link_source": "https://blog.goo.ne.jp/kasiwanohappa/e/e769f4d84313074a443260086f761066", "blog_source": "柏の葉STORY", "name_poi": "南流山地域図書館", "flag_poi": "5", "url_link": "https://www.subaru-shoten.co.jp/tosho/minami/", "url_flag": "1" }, "geometry": { "type": "Point", "coordinates": [ 139.9015066, 35.8337262 ] } },
{ "type": "Feature", "properties": { "link_source": "https://mrs.living.jp/kashiwa/town_news/reporter/4957015", "blog_source": "リビングかしわ", "name_poi": "南流山地域図書館", "flag_poi": "5", "url_link": "https://www.subaru-shoten.co.jp/tosho/minami/", "url_flag": "1" }, "geometry": { "type": "Point", "coordinates": [ 139.9015066, 35.8337262 ] } },
{ "type": "Feature", "properties": { "link_source": "https://nagalulu.com/south-nagareyama-library/", "blog_source": "ながるる", "name_poi": "南流山地域図書館", "flag_poi": "5", "url_link": "https://www.subaru-shoten.co.jp/tosho/minami/", "url_flag": "1" }, "geometry": { "type": "Point", "coordinates": [ 139.9015066, 35.8337262 ] } },
{ "type": "Feature", "properties": { "link_source": "https://morino8.jp/shop/tsite-kashiwanoha/", "blog_source": "モリノハ", "name_poi": "柏の葉T-SITE", "flag_poi": "2", "url_link": "https://store.tsite.jp/kashiwanoha/", "url_flag": "1" }, "geometry": { "type": "Point", "coordinates": [ 139.95349250000001, 35.8989884 ] } },
{ "type": "Feature", "properties": { "link_source": "https://morino8.jp/odekake/kasiwanoha-kouen/", "blog_source": "モリノハ", "name_poi": "柏の葉公園", "flag_poi": "2", "url_link": "https://www.cue-net.or.jp/kouen/kasiwa/", "url_flag": "1" }, "geometry": { "type": "Point", "coordinates": [ 139.9381136, 35.8956556 ] } },
{ "type": "Feature", "properties": { "link_source": "https://kashiwa-tsushin.com/7110.html", "blog_source": "柏つうしん", "name_poi": "柏市公設市場", "flag_poi": "1", "url_link": "http://kashiwa-ichiba.com/", "url_flag": "1" }, "geometry": { "type": "Point", "coordinates": [ 139.9600472, 35.8946573 ] } },
{ "type": "Feature", "properties": { "link_source": "https://yuropom.com/nagareyama-fukumanen/", "blog_source": "ゆろぽんのおいしいごはん。 ", "name_poi": "福満苑", "flag_poi": "1", "url_link": "https://ggka302.gorp.jp/", "url_flag": "1" }, "geometry": { "type": "Point", "coordinates": [ 139.947544099999988, 35.8596644 ] } },
{ "type": "Feature", "properties": { "link_source": "https://mrs.living.jp/kashiwa/town_gourmet/reporter/4863417", "blog_source": "リビングかしわ", "name_poi": "麺処にし尾", "flag_poi": "1", "url_link": "https://twitter.com/mendokoronishio", "url_flag": "3" }, "geometry": { "type": "Point", "coordinates": [ 139.976691499999987, 35.8579018 ] } },
{ "type": "Feature", "properties": { "link_source": "https://machitto.jp/kashiwa/37676/", "blog_source": "まちっと柏", "name_poi": "麺処にし尾", "flag_poi": "1", "url_link": "https://twitter.com/mendokoronishio", "url_flag": "3" }, "geometry": { "type": "Point", "coordinates": [ 139.976691499999987, 35.8579018 ] } },
{ "type": "Feature", "properties": { "link_source": "https://yuropom.com/kashiwanoha-ryugin/", "blog_source": "ゆろぽんのおいしいごはん。 ", "name_poi": "麺場 龍吟", "flag_poi": "1", "url_link": "https://misoya.net/store/ryugin/", "url_flag": "1" }, "geometry": { "type": "Point", "coordinates": [ 139.9682489, 35.8959301 ] } },
{ "type": "Feature", "properties": { "link_source": "https://morino8.jp/gourmet/ryugin/", "blog_source": "モリノハ", "name_poi": "麺場 龍吟", "flag_poi": "1", "url_link": "https://misoya.net/store/ryugin/", "url_flag": "1" }, "geometry": { "type": "Point", "coordinates": [ 139.9682489, 35.8959301 ] } },
{ "type": "Feature", "properties": { "link_source": "https://nagalulu.com/batting-center/", "blog_source": "ながるる", "name_poi": "流山バッティングセンター", "flag_poi": "2", "url_link": "https://twitter.com/nagareyamabc", "url_flag": "3" }, "geometry": { "type": "Point", "coordinates": [ 139.9114887, 35.8373148 ] } },
{ "type": "Feature", "properties": { "link_source": "https://nagareyama-sumizumi.com/post-11964", "blog_source": "流山すみずみ", "name_poi": "流山運動公園", "flag_poi": "2", "url_link": "-", "url_flag": "0" }, "geometry": { "type": "Point", "coordinates": [ 139.918673899999987, 35.8571323 ] } },
{ "type": "Feature", "properties": { "link_source": "https://nagareyama-sanpo.net/2022/12/22-48/", "blog_source": "流山SANPO", "name_poi": "竜泉寺の湯 スパメッツァ", "flag_poi": "2", "url_link": "https://www.ryusenjinoyu.com/spametsaotaka/", "url_flag": "1" }, "geometry": { "type": "Point", "coordinates": [ 139.922819, 35.8731308 ] } },
{ "type": "Feature", "properties": { "link_source": "https://kurowata.com/rin-to-go/", "blog_source": "柏たなかマニア", "name_poi": "凛", "flag_poi": "1", "url_link": "https://rin-kashiwa.owst.jp/", "url_flag": "1" }, "geometry": { "type": "Point", "coordinates": [ 139.9569541, 35.911093 ] } },
{ "type": "Feature", "properties": { "link_source": "https://nagalulu.com/ajikuma/", "blog_source": "ながるる", "name_poi": "麵屋あじくま", "flag_poi": "1", "url_link": "http://www.ajikuma.jp/", "url_flag": "1" }, "geometry": { "type": "Point", "coordinates": [ 139.9171081, 35.8842106 ] } }
]
}
